{
"type": "FeatureCollection",
"name": "other_orgs!!!!",
"crs": { "type": "name", "properties": { "name": "urn:ogc:def:crs:OGC:1.3:CRS84" } },
"features": [
{ "type": "Feature", "properties": { "name": "ACTIVATE GLOBAL INC", "Address": "2600 Tenth Street, Suite 300", "City": "Berkeley", "STATE": "CA", "Zip_Code": "94710", "ObjectId": 1, "AllOtherOrgsSummarized_field_1": "1", "award_count": "1", "total_funding_awarded": "12244454", "recipient_type": "Non-profit organization" }, "geometry": { "type": "Point", "coordinates": [ -122.290450876034996, 37.858780746898702 ] } },
{ "type": "Feature", "properties": { "name": "ALGEBRA PROJECT, INC.", "Address": "99 Bishop Allen Dr", "City": "Cambridge", "STATE": "MA", "Zip_Code": "2139", "ObjectId": 2, "AllOtherOrgsSummarized_field_1": "2", "award_count": "1", "total_funding_awarded": "1072633", "recipient_type": "Non-profit organization" }, "geometry": { "type": "Point", "coordinates": [ -71.101996689857899, 42.365836911764603 ] } },
{ "type": "Feature", "properties": { "name": "ALGOFACE INC", "Address": "37204 N Transquil Trl", "City": "Carefree", "STATE": "AZ", "Zip_Code": "85377", "ObjectId": 3, "AllOtherOrgsSummarized_field_1": "3", "award_count": "1", "total_funding_awarded": "274996", "recipient_type": "Small business" }, "geometry": { "type": "Point", "coordinates": [ -111.918407200016006, 33.823143604122997 ] } },
{ "type": "Feature", "properties": { "name": "AMERICAN ASSOCIATION FOR THE ADVANCEMENT OF SCIENCE", "Address": "1200 New York Ave NW", "City": "Washington", "STATE": "DC", "Zip_Code": "20005", "ObjectId": 4, "AllOtherOrgsSummarized_field_1": "4", "award_count": "3", "total_funding_awarded": "14350331", "recipient_type": "Non-profit organization" }, "geometry": { "type": "Point", "coordinates": [ -77.028403559838495, 38.900201496763998 ] } },
{ "type": "Feature", "properties": { "name": "AMERICAN ASSOCIATION FOR THE ADVANCEMENT OF SCIENCE", "Address": "1200 New York Ave NW", "City": "Washington", "STATE": "DC", "Zip_Code": "20005", "ObjectId": 5, "AllOtherOrgsSummarized_field_1": "4", "award_count": "3", "total_funding_awarded": "14350331", "recipient_type": "Non-profit organization" }, "geometry": { "type": "Point", "coordinates": [ -77.028403559838495, 38.900201496763998 ] } },
{ "type": "Feature", "properties": { "name": "AMERICAN ASSOCIATION FOR THE ADVANCEMENT OF SCIENCE", "Address": "1200 New York Ave NW", "City": "Washington", "STATE": "DC", "Zip_Code": "20005", "ObjectId": 6, "AllOtherOrgsSummarized_field_1": "4", "award_count": "3", "total_funding_awarded": "14350331", "recipient_type": "Non-profit organization" }, "geometry": { "type": "Point", "coordinates": [ -77.028403559838495, 38.900201496763998 ] } },
{ "type": "Feature", "properties": { "name": "AMERICAN ASSOCIATION OF COLLEGES AND UNIVERSITIES", "Address": "1818 R St NW", "City": "Washington", "STATE": "DC", "Zip_Code": "20009", "ObjectId": 7, "AllOtherOrgsSummarized_field_1": "5", "award_count": "1", "total_funding_awarded": "3127229", "recipient_type": "Non-profit organization" }, "geometry": { "type": "Point", "coordinates": [ -77.042541483833503, 38.912420132532603 ] } },
{ "type": "Feature", "properties": { "name": "AMERICAN GEOPHYSICAL UNION", "Address": "2000 Florida Avenue NW", "City": "Washington", "STATE": "DC", "Zip_Code": "20009", "ObjectId": 8, "AllOtherOrgsSummarized_field_1": "6", "award_count": "4", "total_funding_awarded": "228030", "recipient_type": "Non-profit organization" }, "geometry": { "type": "Point", "coordinates": [ -77.045207096996904, 38.914659567488002 ] } },
{ "type": "Feature", "properties": { "name": "AMERICAN GEOPHYSICAL UNION", "Address": "2000 Florida Avenue NW", "City": "Washington", "STATE": "DC", "Zip_Code": "20009", "ObjectId": 9, "AllOtherOrgsSummarized_field_1": "6", "award_count": "4", "total_funding_awarded": "228030", "recipient_type": "Non-profit organization" }, "geometry": { "type": "Point", "coordinates": [ -77.045207096996904, 38.914659567488002 ] } },
{ "type": "Feature", "properties": { "name": "AMERICAN GEOPHYSICAL UNION", "Address": "2000 Florida Avenue NW", "City": "Washington", "STATE": "DC", "Zip_Code": "20009", "ObjectId": 10, "AllOtherOrgsSummarized_field_1": "6", "award_count": "4", "total_funding_awarded": "228030", "recipient_type": "Non-profit organization" }, "geometry": { "type": "Point", "coordinates": [ -77.045207096996904, 38.914659567488002 ] } },
{ "type": "Feature", "properties": { "name": "AMERICAN GEOPHYSICAL UNION", "Address": "2000 Florida Avenue NW", "City": "Washington", "STATE": "DC", "Zip_Code": "20009", "ObjectId": 11, "AllOtherOrgsSummarized_field_1": "6", "award_count": "4", "total_funding_awarded": "228030", "recipient_type": "Non-profit organization" }, "geometry": { "type": "Point", "coordinates": [ -77.045207096996904, 38.914659567488002 ] } },
{ "type": "Feature", "properties": { "name": "AMERICAN INDIAN SCIENCE & ENGINEERING SOCIETY", "Address": "6321 Riverside Plaza Ln NW, Suite L1-A", "City": "Albuquerque", "STATE": "NM", "Zip_Code": "87120-2642", "ObjectId": 12, "AllOtherOrgsSummarized_field_1": "7", "award_count": "1", "total_funding_awarded": "1543276", "recipient_type": "Non-profit organization" }, "geometry": { "type": "Point", "coordinates": [ -106.680062630303993, 35.156768227722203 ] } },
{ "type": "Feature", "properties": { "name": "AMERICAN INSTITUTE OF BIOLOGICAL SCIENCES, INC.", "Address": "950 Herndon Parkway, Suite 450", "City": "Herndon", "STATE": "VA", "Zip_Code": "20170", "ObjectId": 13, "AllOtherOrgsSummarized_field_1": "8", "award_count": "1", "total_funding_awarded": "99963", "recipient_type": "Non-profit organization" }, "geometry": { "type": "Point", "coordinates": [ -77.397931747641607, 38.962905886047103 ] } },
{ "type": "Feature", "properties": { "name": "AMERICAN INSTITUTE OF CHEMICAL ENGINEERS", "Address": "3 Park Ave", "City": "New York", "STATE": "NY", "Zip_Code": "10016", "ObjectId": 14, "AllOtherOrgsSummarized_field_1": "9", "award_count": "1", "total_funding_awarded": "47250", "recipient_type": "Non-profit organization" }, "geometry": { "type": "Point", "coordinates": [ -73.981289563153794, 40.746650696355601 ] } },
{ "type": "Feature", "properties": { "name": "AMERICAN INSTITUTE OF MATHEMATICS", "Address": "1200 E California Blvd", "City": "Pasadena", "STATE": "CA", "Zip_Code": "91125", "ObjectId": 15, "AllOtherOrgsSummarized_field_1": "10", "award_count": "1", "total_funding_awarded": "100", "recipient_type": "Non-profit organization" }, "geometry": { "type": "Point", "coordinates": [ -118.127265264086006, 34.1404353521269 ] } },
{ "type": "Feature", "properties": { "name": "AMERICAN INSTITUTE OF PHYSICS INCORPORATED", "Address": "1 Physics Ellipse", "City": "College Park", "STATE": "MD", "Zip_Code": "20740", "ObjectId": 16, "AllOtherOrgsSummarized_field_1": "11", "award_count": "1", "total_funding_awarded": "51066", "recipient_type": "Non-profit organization" }, "geometry": { "type": "Point", "coordinates": [ -76.929984343024501, 38.971564433769103 ] } },
{ "type": "Feature", "properties": { "name": "AMERICAN INSTITUTES FOR RESEARCH IN THE BEHAVIORAL SCIENCES", "Address": "1400 Crystal Drive", "City": "Arlington", "STATE": "VA", "Zip_Code": "22202-3289", "ObjectId": 17, "AllOtherOrgsSummarized_field_1": "12", "award_count": "3", "total_funding_awarded": "1496853", "recipient_type": "Non-profit organization" }, "geometry": { "type": "Point", "coordinates": [ -77.049808090913999, 38.861026618759702 ] } },
{ "type": "Feature", "properties": { "name": "AMERICAN INSTITUTES FOR RESEARCH IN THE BEHAVIORAL SCIENCES", "Address": "1401 Crystal Drive", "City": "Arlington", "STATE": "VA", "Zip_Code": "22202-3290", "ObjectId": 18, "AllOtherOrgsSummarized_field_1": "12", "award_count": "3", "total_funding_awarded": "1496853", "recipient_type": "Non-profit organization" }, "geometry": { "type": "Point", "coordinates": [ -77.049209016129197, 38.8612272717438 ] } },
{ "type": "Feature", "properties": { "name": "AMERICAN INSTITUTES FOR RESEARCH IN THE BEHAVIORAL SCIENCES", "Address": "1402 Crystal Drive", "City": "Arlington", "STATE": "VA", "Zip_Code": "22202-3291", "ObjectId": 19, "AllOtherOrgsSummarized_field_1": "12", "award_count": "3", "total_funding_awarded": "1496853", "recipient_type": "Non-profit organization" }, "geometry": { "type": "Point", "coordinates": [ -77.049446784913499, 38.861033878079702 ] } },
{ "type": "Feature", "properties": { "name": "AMERICAN MATHEMATICAL ASSOCIATION OF TWO-YEAR COLLEGES", "Address": "5983 Macon Cv", "City": "Memphis", "STATE": "TN", "Zip_Code": "38134", "ObjectId": 20, "AllOtherOrgsSummarized_field_1": "13", "award_count": "1", "total_funding_awarded": "49920", "recipient_type": "Non-profit organization" }, "geometry": { "type": "Point", "coordinates": [ -89.865128849515699, 35.162386617442003 ] } },
{ "type": "Feature", "properties": { "name": "AMERICAN METEOROLOGICAL SOCIETY, INC.", "Address": "1200 New York Ave NW", "City": "Washington", "STATE": "MA", "Zip_Code": "20005", "ObjectId": 21, "AllOtherOrgsSummarized_field_1": "14", "award_count": "1", "total_funding_awarded": "49951", "recipient_type": "Non-profit organization" }, "geometry": { "type": "Point", "coordinates": [ -77.028403559838495, 38.900201496763998 ] } },
{ "type": "Feature", "properties": { "name": "AMERICAN PHYSICAL SOCIETY", "Address": "1 Physics Ellipse", "City": "College Park", "STATE": "MD", "Zip_Code": "20740", "ObjectId": 22, "AllOtherOrgsSummarized_field_1": "15", "award_count": "2", "total_funding_awarded": "1709234", "recipient_type": "Non-profit organization" }, "geometry": { "type": "Point", "coordinates": [ -76.929984343024501, 38.971564433769103 ] } },
{ "type": "Feature", "properties": { "name": "AMERICAN PHYSICAL SOCIETY", "Address": "1 Physics Ellipse", "City": "College Park", "STATE": "MD", "Zip_Code": "20740", "ObjectId": 23, "AllOtherOrgsSummarized_field_1": "15", "award_count": "2", "total_funding_awarded": "1709234", "recipient_type": "Non-profit organization" }, "geometry": { "type": "Point", "coordinates": [ -76.929984343024501, 38.971564433769103 ] } },
{ "type": "Feature", "properties": { "name": "AMERICAN POLITICAL SCIENCE ASSOCIATION", "Address": "1527 New Hampshire Ave NW", "City": "Washington", "STATE": "DC", "Zip_Code": "20036", "ObjectId": 24, "AllOtherOrgsSummarized_field_1": "16", "award_count": "1", "total_funding_awarded": "942221", "recipient_type": "Non-profit organization" }, "geometry": { "type": "Point", "coordinates": [ -77.042077293783507, 38.910682480351298 ] } },
{ "type": "Feature", "properties": { "name": "AMERICAN SOCIETY FOR ENGINEERING EDUCATION", "Address": "1818 N St NW Ste 600", "City": "Washington", "STATE": "DC", "Zip_Code": "20036", "ObjectId": 25, "AllOtherOrgsSummarized_field_1": "17", "award_count": "3", "total_funding_awarded": "471043", "recipient_type": "Non-profit organization" }, "geometry": { "type": "Point", "coordinates": [ -77.042929062861106, 38.9069900006211 ] } },
{ "type": "Feature", "properties": { "name": "AMERICAN SOCIETY FOR ENGINEERING EDUCATION", "Address": "1818 N St NW Ste 600", "City": "Washington", "STATE": "DC", "Zip_Code": "20036", "ObjectId": 26, "AllOtherOrgsSummarized_field_1": "17", "award_count": "3", "total_funding_awarded": "471043", "recipient_type": "Non-profit organization" }, "geometry": { "type": "Point", "coordinates": [ -77.042929062861106, 38.9069900006211 ] } },
{ "type": "Feature", "properties": { "name": "AMERICAN SOCIETY FOR ENGINEERING EDUCATION", "Address": "1818 N St NW Ste 600", "City": "Washington", "STATE": "DC", "Zip_Code": "20036", "ObjectId": 27, "AllOtherOrgsSummarized_field_1": "17", "award_count": "3", "total_funding_awarded": "471043", "recipient_type": "Non-profit organization" }, "geometry": { "type": "Point", "coordinates": [ -77.042929062861106, 38.9069900006211 ] } },
{ "type": "Feature", "properties": { "name": "AMERICAN SOCIETY FOR MICROBIOLOGY", "Address": "1752 N St NW", "City": "Washington", "STATE": "DC", "Zip_Code": "20036", "ObjectId": 28, "AllOtherOrgsSummarized_field_1": "18", "award_count": "1", "total_funding_awarded": "499985", "recipient_type": "Non-profit organization" }, "geometry": { "type": "Point", "coordinates": [ -77.040447097681195, 38.907066946586099 ] } },
{ "type": "Feature", "properties": { "name": "ANYGLABS, INC.", "Address": "5770 Oberlin Dr", "City": "San Diego", "STATE": "CA", "Zip_Code": "92121-1723", "ObjectId": 29, "AllOtherOrgsSummarized_field_1": "19", "award_count": "1", "total_funding_awarded": "275000", "recipient_type": "Small business" }, "geometry": { "type": "Point", "coordinates": [ -117.194521211269006, 32.8934504386215 ] } },
{ "type": "Feature", "properties": { "name": "ARIZONA TECHNOLOGY COUNCIL FOUNDATION", "Address": "2800 North Central Avenue, #1530", "City": "Phoenix", "STATE": "AZ", "Zip_Code": "85004", "ObjectId": 30, "AllOtherOrgsSummarized_field_1": "20", "award_count": "1", "total_funding_awarded": "74940", "recipient_type": "Non-profit organization" }, "geometry": { "type": "Point", "coordinates": [ -112.074158634705995, 33.478863762282899 ] } },
{ "type": "Feature", "properties": { "name": "ARKANSAS CHILDREN'S RESEARCH INSTITUTE", "Address": "13 Childrens Way Ste 842", "City": "Little Rock", "STATE": "AR", "Zip_Code": "72202", "ObjectId": 31, "AllOtherOrgsSummarized_field_1": "21", "award_count": "1", "total_funding_awarded": "264424", "recipient_type": "Medical center" }, "geometry": { "type": "Point", "coordinates": [ -92.292368585113906, 34.739395843111602 ] } },
{ "type": "Feature", "properties": { "name": "ASSOCIATED UNIVERSITIES INC", "Address": "1400 16th St NW Ste 730", "City": "Washington", "STATE": "DC", "Zip_Code": "20036", "ObjectId": 32, "AllOtherOrgsSummarized_field_1": "22", "award_count": "1", "total_funding_awarded": "8661255", "recipient_type": "Non-profit organization" }, "geometry": { "type": "Point", "coordinates": [ -77.037060892827796, 38.9090459134284 ] } },
{ "type": "Feature", "properties": { "name": "THE ASSOCIATION OF AMERICAN GEOGRAPHERS", "Address": "1701 Pennsylvania Ave NW", "City": "Washington", "STATE": "DC", "Zip_Code": "20006", "ObjectId": 33, "AllOtherOrgsSummarized_field_1": "111", "award_count": "1", "total_funding_awarded": "77205", "recipient_type": "Non-profit organization" }, "geometry": { "type": "Point", "coordinates": [ -77.039826753485301, 38.899344112513603 ] } },
{ "type": "Feature", "properties": { "name": "ASTRIA BIOSCIENCES, INC.", "Address": "1123 Pinewood Drive", "City": "Pittsburg", "STATE": "PA", "Zip_Code": "15243", "ObjectId": 34, "AllOtherOrgsSummarized_field_1": "23", "award_count": "1", "total_funding_awarded": "275000", "recipient_type": "Small business" }, "geometry": { "type": "Point", "coordinates": [ -80.067232632711296, 40.372706460708699 ] } },
{ "type": "Feature", "properties": { "name": "AUGUSTA UNIVERSITY RESEARCH INSTITUTE, INC", "Address": "1120 15th St", "City": "Augusta", "STATE": "GA", "Zip_Code": "30912", "ObjectId": 35, "AllOtherOrgsSummarized_field_1": "24", "award_count": "2", "total_funding_awarded": "769913", "recipient_type": "Research institute" }, "geometry": { "type": "Point", "coordinates": [ -81.989729917552793, 33.470918263239099 ] } },
{ "type": "Feature", "properties": { "name": "AUGUSTA UNIVERSITY RESEARCH INSTITUTE, INC", "Address": "1120 15th St", "City": "Augusta", "STATE": "GA", "Zip_Code": "30912", "ObjectId": 36, "AllOtherOrgsSummarized_field_1": "24", "award_count": "2", "total_funding_awarded": "769913", "recipient_type": "Research institute" }, "geometry": { "type": "Point", "coordinates": [ -81.989729917552793, 33.470918263239099 ] } },
{ "type": "Feature", "properties": { "name": "BIGELOW LABORATORY FOR OCEAN SCIENCES", "Address": "60 Bigelow Dr", "City": "East Boothbay", "STATE": "ME", "Zip_Code": "4544", "ObjectId": 37, "AllOtherOrgsSummarized_field_1": "25", "award_count": "1", "total_funding_awarded": "315151", "recipient_type": "Non-profit organization" }, "geometry": { "type": "Point", "coordinates": [ -69.580252025982404, 43.859953607569601 ] } },
{ "type": "Feature", "properties": { "name": "BIOINDUSTRIAL MANUFACTURING AND DESIGN ECOSYSTEM", "Address": "15600 35th Ave N Ste 102", "City": "Minneapolis", "STATE": "CA", "Zip_Code": "55447", "ObjectId": 38, "AllOtherOrgsSummarized_field_1": "26", "award_count": "1", "total_funding_awarded": "234191", "recipient_type": "Non-profit organization" }, "geometry": { "type": "Point", "coordinates": [ -93.477830622890096, 45.020487487823203 ] } },
{ "type": "Feature", "properties": { "name": "BIOSENS8, INC.", "Address": "750 Main St", "City": "Cambridge", "STATE": "MA", "Zip_Code": "02139-3544", "ObjectId": 39, "AllOtherOrgsSummarized_field_1": "27", "award_count": "1", "total_funding_awarded": "1000000", "recipient_type": "Small business" }, "geometry": { "type": "Point", "coordinates": [ -71.096256845959502, 42.3628463744638 ] } },
{ "type": "Feature", "properties": { "name": "BISHOP MUSEUM", "Address": "1525 Bernice St", "City": "Honolulu", "STATE": "HI", "Zip_Code": "96817", "ObjectId": 40, "AllOtherOrgsSummarized_field_1": "28", "award_count": "1", "total_funding_awarded": "598628", "recipient_type": "Museum" }, "geometry": { "type": "Point", "coordinates": [ -157.870785881837008, 21.333046765583799 ] } },
{ "type": "Feature", "properties": { "name": "BLACK IN MARINE SCIENCE", "Address": "522 W Riverside Ave", "City": "Spokane", "STATE": "WA", "Zip_Code": "99201", "ObjectId": 41, "AllOtherOrgsSummarized_field_1": "29", "award_count": "1", "total_funding_awarded": "1997452", "recipient_type": "Small business" }, "geometry": { "type": "Point", "coordinates": [ -117.420613327040002, 47.658172253368797 ] } },
{ "type": "Feature", "properties": { "name": "CALM WATERS GROUP LLC", "Address": "5393 Oak Forest Dr", "City": "Jacksonville", "STATE": "CA", "Zip_Code": "32211", "ObjectId": 42, "AllOtherOrgsSummarized_field_1": "30", "award_count": "1", "total_funding_awarded": "275937", "recipient_type": "Small business" }, "geometry": { "type": "Point", "coordinates": [ -81.606607204754894, 30.3373775402648 ] } },
{ "type": "Feature", "properties": { "name": "CARNEGIE INSTITUTION OF WASHINGTON", "Address": "5241 Broad Branch Rd. NW", "City": "Washington", "STATE": "DC", "Zip_Code": "20015", "ObjectId": 43, "AllOtherOrgsSummarized_field_1": "31", "award_count": "1", "total_funding_awarded": "306393", "recipient_type": "Non-profit organization" }, "geometry": { "type": "Point", "coordinates": [ -77.0635267523013, 38.958728387255 ] } },
{ "type": "Feature", "properties": { "name": "CARY INSTITUTE OF ECOSYSTEM STUDIES, INC", "Address": "2801 Sharon Tpke", "City": "Millbrook", "STATE": "NY", "Zip_Code": "12545", "ObjectId": 44, "AllOtherOrgsSummarized_field_1": "32", "award_count": "1", "total_funding_awarded": "2550000", "recipient_type": "Non-profit organization" }, "geometry": { "type": "Point", "coordinates": [ -73.734145627227093, 41.784511735327001 ] } },
{ "type": "Feature", "properties": { "name": "CAST INC", "Address": "40 Harvard Mills Square", "City": "Wakefield", "STATE": "MA", "Zip_Code": "1880", "ObjectId": 45, "AllOtherOrgsSummarized_field_1": "33", "award_count": "1", "total_funding_awarded": "646526", "recipient_type": "Small business" }, "geometry": { "type": "Point", "coordinates": [ -71.067338822915502, 42.483784797725498 ] } },
{ "type": "Feature", "properties": { "name": "CHIBITRONICS INC", "Address": "1652 Mountain Ash Way", "City": "New Port Richey", "STATE": "FL", "Zip_Code": "34655", "ObjectId": 46, "AllOtherOrgsSummarized_field_1": "34", "award_count": "1", "total_funding_awarded": "991408", "recipient_type": "Small business" }, "geometry": { "type": "Point", "coordinates": [ -82.7129102979724, 28.183657032509601 ] } },
{ "type": "Feature", "properties": { "name": "CHILD TRENDS, INCORPORATED", "Address": "7315 Wisconsin Ave", "City": "Bethesda", "STATE": "MD", "Zip_Code": "20814", "ObjectId": 47, "AllOtherOrgsSummarized_field_1": "35", "award_count": "2", "total_funding_awarded": "1794756", "recipient_type": "Non-profit organization" }, "geometry": { "type": "Point", "coordinates": [ -77.092476504739395, 38.982544182170003 ] } },
{ "type": "Feature", "properties": { "name": "CHILD TRENDS, INCORPORATED", "Address": "7315 Wisconsin Ave", "City": "Bethesda", "STATE": "MD", "Zip_Code": "20814", "ObjectId": 48, "AllOtherOrgsSummarized_field_1": "35", "award_count": "2", "total_funding_awarded": "1794756", "recipient_type": "Non-profit organization" }, "geometry": { "type": "Point", "coordinates": [ -77.092476504739395, 38.982544182170003 ] } },
{ "type": "Feature", "properties": { "name": "COASTAL AND ESTUARINE RESEARCH FEDERATION", "Address": "2150 N 107th St", "City": "Seattle", "STATE": "WA", "Zip_Code": "98133", "ObjectId": 49, "AllOtherOrgsSummarized_field_1": "36", "award_count": "1", "total_funding_awarded": "1736883", "recipient_type": "Non-profit organization" }, "geometry": { "type": "Point", "coordinates": [ -122.331762761915996, 47.707445690283102 ] } },
{ "type": "Feature", "properties": { "name": "COEUR D'ALENE TRIBE", "Address": "850 A St", "City": "Plummer", "STATE": "ID", "Zip_Code": "83851", "ObjectId": 50, "AllOtherOrgsSummarized_field_1": "37", "award_count": "1", "total_funding_awarded": "2091864", "recipient_type": "Tribal designated organization" }, "geometry": { "type": "Point", "coordinates": [ -116.886676209860994, 47.337242125100502 ] } },
{ "type": "Feature", "properties": { "name": "COLD SPRING HARBOR LABORATORY", "Address": "1 Bungtown Rd", "City": "Cold Spring Harbor", "STATE": "NY", "Zip_Code": "11724", "ObjectId": 51, "AllOtherOrgsSummarized_field_1": "38", "award_count": "2", "total_funding_awarded": "2432730", "recipient_type": "Research institute" }, "geometry": { "type": "Point", "coordinates": [ -73.467653744371702, 40.857741758815301 ] } },
{ "type": "Feature", "properties": { "name": "COLD SPRING HARBOR LABORATORY", "Address": "1 Bungtown Rd", "City": "Cold Spring Harbor", "STATE": "NY", "Zip_Code": "11724", "ObjectId": 52, "AllOtherOrgsSummarized_field_1": "38", "award_count": "2", "total_funding_awarded": "2432730", "recipient_type": "Research institute" }, "geometry": { "type": "Point", "coordinates": [ -73.467653744371702, 40.857741758815301 ] } },
{ "type": "Feature", "properties": { "name": "COMPUTER SCIENCE TEACHERS ASSOCIATION, LLC", "Address": "200 E Randolph St", "City": "Chicago", "STATE": "IL", "Zip_Code": "60601", "ObjectId": 54, "AllOtherOrgsSummarized_field_1": "39", "award_count": "1", "total_funding_awarded": "999875", "recipient_type": "Non-profit organization" }, "geometry": { "type": "Point", "coordinates": [ -87.6215208540047, 41.885290836250697 ] } },
{ "type": "Feature", "properties": { "name": "CONCORD CONSORTIUM INC", "Address": "25 Love Ln", "City": "Concord", "STATE": "MA", "Zip_Code": "1742", "ObjectId": 55, "AllOtherOrgsSummarized_field_1": "40", "award_count": "2", "total_funding_awarded": "3015214", "recipient_type": "Small business" }, "geometry": { "type": "Point", "coordinates": [ -71.3581985292371, 42.456621640880201 ] } },
{ "type": "Feature", "properties": { "name": "CONCORD CONSORTIUM INC", "Address": "25 Love Ln", "City": "Concord", "STATE": "MA", "Zip_Code": "1742", "ObjectId": 56, "AllOtherOrgsSummarized_field_1": "40", "award_count": "2", "total_funding_awarded": "3015214", "recipient_type": "Small business" }, "geometry": { "type": "Point", "coordinates": [ -71.3581985292371, 42.456621640880201 ] } },
{ "type": "Feature", "properties": { "name": "COUNCIL OF GRADUATE SCHOOLS", "Address": "1 Dunpont Cir NW", "City": "Washington", "STATE": "DC", "Zip_Code": "20036", "ObjectId": 57, "AllOtherOrgsSummarized_field_1": "41", "award_count": "2", "total_funding_awarded": "5832591", "recipient_type": "Non-profit organization" }, "geometry": { "type": "Point", "coordinates": [ -77.044488265106494, 38.9091784738022 ] } },
{ "type": "Feature", "properties": { "name": "COUNCIL OF GRADUATE SCHOOLS", "Address": "1 Dunpont Cir NW", "City": "Washington", "STATE": "DC", "Zip_Code": "20036", "ObjectId": 58, "AllOtherOrgsSummarized_field_1": "41", "award_count": "2", "total_funding_awarded": "5832591", "recipient_type": "Non-profit organization" }, "geometry": { "type": "Point", "coordinates": [ -77.044488265106494, 38.9091784738022 ] } },
{ "type": "Feature", "properties": { "name": "CULTURALLY RESPONSIVE SOLUTIONS, LLC", "Address": "1 Oak Knoll Drive", "City": "Wallingford", "STATE": "PA", "Zip_Code": "19086", "ObjectId": 59, "AllOtherOrgsSummarized_field_1": "42", "award_count": "1", "total_funding_awarded": "294880", "recipient_type": "Small business" }, "geometry": { "type": "Point", "coordinates": [ -75.365422319259693, 39.903048938408503 ] } },
{ "type": "Feature", "properties": { "name": "DEEP SOUTH CENTER FOR ENVIRONMENTAL JUSTICE INC", "Address": "9801 Lake Forest Blvd", "City": "New Orleans", "STATE": "LA", "Zip_Code": "70127", "ObjectId": 60, "AllOtherOrgsSummarized_field_1": "43", "award_count": "1", "total_funding_awarded": "99501", "recipient_type": "Non-profit organization" }, "geometry": { "type": "Point", "coordinates": [ -89.979798062508195, 30.029963110428099 ] } },
{ "type": "Feature", "properties": { "name": "DONALD DANFORTH PLANT SCIENCE CENTER", "Address": "975 N Warson Rd", "City": "Saint Louis", "STATE": "MO", "Zip_Code": "63132", "ObjectId": 61, "AllOtherOrgsSummarized_field_1": "44", "award_count": "1", "total_funding_awarded": "272309", "recipient_type": "Non-profit organization" }, "geometry": { "type": "Point", "coordinates": [ -90.396817946170898, 38.6758750295797 ] } },
{ "type": "Feature", "properties": { "name": "EARTH IMAGES FOUNDATION", "Address": "470 Cavour St", "City": "Oakland", "STATE": "CA", "Zip_Code": "94618", "ObjectId": 62, "AllOtherOrgsSummarized_field_1": "45", "award_count": "1", "total_funding_awarded": "239498", "recipient_type": "For-profit organization" }, "geometry": { "type": "Point", "coordinates": [ -122.258480201585002, 37.838654456293 ] } },
{ "type": "Feature", "properties": { "name": "EARTHSCOPE CONSORTIUM INC.", "Address": "1200 New York Ave NW", "City": "Washington", "STATE": "DC", "Zip_Code": "20005", "ObjectId": 63, "AllOtherOrgsSummarized_field_1": "46", "award_count": "1", "total_funding_awarded": "499863", "recipient_type": "Non-profit organization" }, "geometry": { "type": "Point", "coordinates": [ -77.028403559838495, 38.900201496763998 ] } },
{ "type": "Feature", "properties": { "name": "EASTIE FARM INC", "Address": "213 Webster St", "City": "Boston", "STATE": "MA", "Zip_Code": "2128", "ObjectId": 64, "AllOtherOrgsSummarized_field_1": "47", "award_count": "2", "total_funding_awarded": "1049500", "recipient_type": "Small business" }, "geometry": { "type": "Point", "coordinates": [ -71.033252007812806, 42.364909412456797 ] } },
{ "type": "Feature", "properties": { "name": "EASTIE FARM INC", "Address": "213 Webster St", "City": "Boston", "STATE": "MA", "Zip_Code": "2128", "ObjectId": 65, "AllOtherOrgsSummarized_field_1": "47", "award_count": "2", "total_funding_awarded": "1049500", "recipient_type": "Small business" }, "geometry": { "type": "Point", "coordinates": [ -71.033252007812806, 42.364909412456797 ] } },
{ "type": "Feature", "properties": { "name": "ECOLOGICAL SOCIETY OF AMERICA INC", "Address": "1990 M St NW", "City": "Washington", "STATE": "DC", "Zip_Code": "20036", "ObjectId": 66, "AllOtherOrgsSummarized_field_1": "48", "award_count": "4", "total_funding_awarded": "398957", "recipient_type": "Non-profit organization" }, "geometry": { "type": "Point", "coordinates": [ -77.044518020902004, 38.905476731668102 ] } },
{ "type": "Feature", "properties": { "name": "ECOLOGICAL SOCIETY OF AMERICA INC", "Address": "1990 M St NW", "City": "Washington", "STATE": "DC", "Zip_Code": "20036", "ObjectId": 67, "AllOtherOrgsSummarized_field_1": "48", "award_count": "4", "total_funding_awarded": "398957", "recipient_type": "Non-profit organization" }, "geometry": { "type": "Point", "coordinates": [ -77.044518020902004, 38.905476731668102 ] } },
{ "type": "Feature", "properties": { "name": "ECOLOGICAL SOCIETY OF AMERICA INC", "Address": "1990 M St NW", "City": "Washington", "STATE": "DC", "Zip_Code": "20036", "ObjectId": 68, "AllOtherOrgsSummarized_field_1": "48", "award_count": "4", "total_funding_awarded": "398957", "recipient_type": "Non-profit organization" }, "geometry": { "type": "Point", "coordinates": [ -77.044518020902004, 38.905476731668102 ] } },
{ "type": "Feature", "properties": { "name": "ECOLOGICAL SOCIETY OF AMERICA INC", "Address": "1990 M St NW", "City": "Washington", "STATE": "DC", "Zip_Code": "20036", "ObjectId": 69, "AllOtherOrgsSummarized_field_1": "48", "award_count": "4", "total_funding_awarded": "398957", "recipient_type": "Non-profit organization" }, "geometry": { "type": "Point", "coordinates": [ -77.044518020902004, 38.905476731668102 ] } },
{ "type": "Feature", "properties": { "name": "EDUCATION DEVELOPMENT CENTER, INC.", "Address": "1025 Thomas Jefferson St NW", "City": "Waltham", "STATE": "MA", "Zip_Code": "2451", "ObjectId": 70, "AllOtherOrgsSummarized_field_1": "49", "award_count": "4", "total_funding_awarded": "3913274", "recipient_type": "Non-profit organization" }, "geometry": { "type": "Point", "coordinates": [ -71.249430699688901, 42.392424899925899 ] } },
{ "type": "Feature", "properties": { "name": "EDUCATION DEVELOPMENT CENTER, INC.", "Address": "1025 Thomas Jefferson St NW", "City": "Waltham", "STATE": "MA", "Zip_Code": "2451", "ObjectId": 71, "AllOtherOrgsSummarized_field_1": "49", "award_count": "4", "total_funding_awarded": "3913274", "recipient_type": "Non-profit organization" }, "geometry": { "type": "Point", "coordinates": [ -71.249430699688901, 42.392424899925899 ] } },
{ "type": "Feature", "properties": { "name": "EDUCATION DEVELOPMENT CENTER, INC.", "Address": "1025 Thomas Jefferson St NW", "City": "Waltham", "STATE": "MA", "Zip_Code": "2451", "ObjectId": 72, "AllOtherOrgsSummarized_field_1": "49", "award_count": "4", "total_funding_awarded": "3913274", "recipient_type": "Non-profit organization" }, "geometry": { "type": "Point", "coordinates": [ -71.249430699688901, 42.392424899925899 ] } },
{ "type": "Feature", "properties": { "name": "EDUCATION DEVELOPMENT CENTER, INC.", "Address": "1025 Thomas Jefferson St NW", "City": "Waltham", "STATE": "MA", "Zip_Code": "2451", "ObjectId": 73, "AllOtherOrgsSummarized_field_1": "49", "award_count": "4", "total_funding_awarded": "3913274", "recipient_type": "Non-profit organization" }, "geometry": { "type": "Point", "coordinates": [ -71.249430699688901, 42.392424899925899 ] } },
{ "type": "Feature", "properties": { "name": "ELECTRICAL & COMPUTER ENGINEERING DEPARTMENT HEADS ASSOCIATION", "Address": "180 N Stetson Ave", "City": "Chicago", "STATE": "IL", "Zip_Code": "60601", "ObjectId": 74, "AllOtherOrgsSummarized_field_1": "50", "award_count": "1", "total_funding_awarded": "49998", "recipient_type": "Non-profit organization" }, "geometry": { "type": "Point", "coordinates": [ -87.623275521571003, 41.885151989925902 ] } },
{ "type": "Feature", "properties": { "name": "EMPALLO, INC.", "Address": "511 Putnam Ave", "City": "Cambridge", "STATE": "MA", "Zip_Code": "2139", "ObjectId": 75, "AllOtherOrgsSummarized_field_1": "51", "award_count": "1", "total_funding_awarded": "275000", "recipient_type": "Small business" }, "geometry": { "type": "Point", "coordinates": [ -71.109335296908398, 42.3579069611256 ] } },
{ "type": "Feature", "properties": { "name": "FEDERATION OF AMERICAN SOCIETIES FOR EXPERIMENTAL BIOLOGY", "Address": "PO Box 2288", "City": "Rockville", "STATE": "MD", "Zip_Code": "20847", "ObjectId": 76, "AllOtherOrgsSummarized_field_1": "52", "award_count": "2", "total_funding_awarded": "527869", "recipient_type": "Non-profit organization" }, "geometry": { "type": "Point", "coordinates": [ -77.123758100398803, 39.058708699783999 ] } },
{ "type": "Feature", "properties": { "name": "FEDERATION OF AMERICAN SOCIETIES FOR EXPERIMENTAL BIOLOGY", "Address": "PO Box 2288", "City": "Rockville", "STATE": "MD", "Zip_Code": "20847", "ObjectId": 77, "AllOtherOrgsSummarized_field_1": "52", "award_count": "2", "total_funding_awarded": "527869", "recipient_type": "Non-profit organization" }, "geometry": { "type": "Point", "coordinates": [ -77.123758100398803, 39.058708699783999 ] } },
{ "type": "Feature", "properties": { "name": "FIRELINE SCIENCE LLC", "Address": "5501 S College Ave", "City": "Tempe", "STATE": "AZ", "Zip_Code": "85283", "ObjectId": 78, "AllOtherOrgsSummarized_field_1": "53", "award_count": "1", "total_funding_awarded": "1016783", "recipient_type": "Small business" }, "geometry": { "type": "Point", "coordinates": [ -111.933367387922999, 33.3730384214468 ] } },
{ "type": "Feature", "properties": { "name": "GENASSIST INC", "Address": "8200 E Belleview Ave", "City": "Greenwood Village", "STATE": "MO", "Zip_Code": "80111", "ObjectId": 79, "AllOtherOrgsSummarized_field_1": "54", "award_count": "1", "total_funding_awarded": "294993", "recipient_type": "Small business" }, "geometry": { "type": "Point", "coordinates": [ -104.893627104207994, 39.623340721845501 ] } },
{ "type": "Feature", "properties": { "name": "GENETICS SOCIETY OF AMERICA INC", "Address": "6120 Executive Blvd", "City": "Rockville", "STATE": "MD", "Zip_Code": "20852", "ObjectId": 80, "AllOtherOrgsSummarized_field_1": "55", "award_count": "1", "total_funding_awarded": "97500", "recipient_type": "For-profit organization" }, "geometry": { "type": "Point", "coordinates": [ -77.127347317319803, 39.047722532236001 ] } },
{ "type": "Feature", "properties": { "name": "GLOBAL PHILANTHROPY PARTNERSHIP", "Address": "643 W Arlington Pl", "City": "Chicago", "STATE": "IL", "Zip_Code": "60614", "ObjectId": 81, "AllOtherOrgsSummarized_field_1": "56", "award_count": "1", "total_funding_awarded": "221100", "recipient_type": "Non-profit organization" }, "geometry": { "type": "Point", "coordinates": [ -87.645626620936198, 41.926451764331702 ] } },
{ "type": "Feature", "properties": { "name": "GORDON RESEARCH CONFERENCES", "Address": "512 Liberty Lane", "City": "West Kingston", "STATE": "RI", "Zip_Code": "2892", "ObjectId": 82, "AllOtherOrgsSummarized_field_1": "57", "award_count": "26", "total_funding_awarded": "635780", "recipient_type": "Non-profit organization" }, "geometry": { "type": "Point", "coordinates": [ -71.569587947499002, 41.480021375010097 ] } },
{ "type": "Feature", "properties": { "name": "GORDON RESEARCH CONFERENCES", "Address": "512 Liberty Lane", "City": "West Kingston", "STATE": "RI", "Zip_Code": "2892", "ObjectId": 83, "AllOtherOrgsSummarized_field_1": "57", "award_count": "26", "total_funding_awarded": "635780", "recipient_type": "Non-profit organization" }, "geometry": { "type": "Point", "coordinates": [ -71.569587947499002, 41.480021375010097 ] } },
{ "type": "Feature", "properties": { "name": "GORDON RESEARCH CONFERENCES", "Address": "512 Liberty Lane", "City": "West Kingston", "STATE": "RI", "Zip_Code": "2892", "ObjectId": 84, "AllOtherOrgsSummarized_field_1": "57", "award_count": "26", "total_funding_awarded": "635780", "recipient_type": "Non-profit organization" }, "geometry": { "type": "Point", "coordinates": [ -71.569587947499002, 41.480021375010097 ] } },
{ "type": "Feature", "properties": { "name": "GORDON RESEARCH CONFERENCES", "Address": "512 Liberty Lane", "City": "West Kingston", "STATE": "RI", "Zip_Code": "2892", "ObjectId": 85, "AllOtherOrgsSummarized_field_1": "57", "award_count": "26", "total_funding_awarded": "635780", "recipient_type": "Non-profit organization" }, "geometry": { "type": "Point", "coordinates": [ -71.569587947499002, 41.480021375010097 ] } },
{ "type": "Feature", "properties": { "name": "GORDON RESEARCH CONFERENCES", "Address": "512 Liberty Lane", "City": "West Kingston", "STATE": "RI", "Zip_Code": "2892", "ObjectId": 86, "AllOtherOrgsSummarized_field_1": "57", "award_count": "26", "total_funding_awarded": "635780", "recipient_type": "Non-profit organization" }, "geometry": { "type": "Point", "coordinates": [ -71.569587947499002, 41.480021375010097 ] } },
{ "type": "Feature", "properties": { "name": "GORDON RESEARCH CONFERENCES", "Address": "512 Liberty Lane", "City": "West Kingston", "STATE": "RI", "Zip_Code": "2892", "ObjectId": 87, "AllOtherOrgsSummarized_field_1": "57", "award_count": "26", "total_funding_awarded": "635780", "recipient_type": "Non-profit organization" }, "geometry": { "type": "Point", "coordinates": [ -71.569587947499002, 41.480021375010097 ] } },
{ "type": "Feature", "properties": { "name": "GORDON RESEARCH CONFERENCES", "Address": "512 Liberty Lane", "City": "West Kingston", "STATE": "RI", "Zip_Code": "2892", "ObjectId": 88, "AllOtherOrgsSummarized_field_1": "57", "award_count": "26", "total_funding_awarded": "635780", "recipient_type": "Non-profit organization" }, "geometry": { "type": "Point", "coordinates": [ -71.569587947499002, 41.480021375010097 ] } },
{ "type": "Feature", "properties": { "name": "GORDON RESEARCH CONFERENCES", "Address": "512 Liberty Lane", "City": "West Kingston", "STATE": "RI", "Zip_Code": "2892", "ObjectId": 89, "AllOtherOrgsSummarized_field_1": "57", "award_count": "26", "total_funding_awarded": "635780", "recipient_type": "Non-profit organization" }, "geometry": { "type": "Point", "coordinates": [ -71.569587947499002, 41.480021375010097 ] } },
{ "type": "Feature", "properties": { "name": "GORDON RESEARCH CONFERENCES", "Address": "512 Liberty Lane", "City": "West Kingston", "STATE": "RI", "Zip_Code": "2892", "ObjectId": 90, "AllOtherOrgsSummarized_field_1": "57", "award_count": "26", "total_funding_awarded": "635780", "recipient_type": "Non-profit organization" }, "geometry": { "type": "Point", "coordinates": [ -71.569587947499002, 41.480021375010097 ] } },
{ "type": "Feature", "properties": { "name": "GORDON RESEARCH CONFERENCES", "Address": "512 Liberty Lane", "City": "West Kingston", "STATE": "RI", "Zip_Code": "2892", "ObjectId": 91, "AllOtherOrgsSummarized_field_1": "57", "award_count": "26", "total_funding_awarded": "635780", "recipient_type": "Non-profit organization" }, "geometry": { "type": "Point", "coordinates": [ -71.569587947499002, 41.480021375010097 ] } },
{ "type": "Feature", "properties": { "name": "GORDON RESEARCH CONFERENCES", "Address": "512 Liberty Lane", "City": "West Kingston", "STATE": "RI", "Zip_Code": "2892", "ObjectId": 92, "AllOtherOrgsSummarized_field_1": "57", "award_count": "26", "total_funding_awarded": "635780", "recipient_type": "Non-profit organization" }, "geometry": { "type": "Point", "coordinates": [ -71.569587947499002, 41.480021375010097 ] } },
{ "type": "Feature", "properties": { "name": "GORDON RESEARCH CONFERENCES", "Address": "512 Liberty Lane", "City": "West Kingston", "STATE": "RI", "Zip_Code": "2892", "ObjectId": 93, "AllOtherOrgsSummarized_field_1": "57", "award_count": "26", "total_funding_awarded": "635780", "recipient_type": "Non-profit organization" }, "geometry": { "type": "Point", "coordinates": [ -71.569587947499002, 41.480021375010097 ] } },
{ "type": "Feature", "properties": { "name": "GORDON RESEARCH CONFERENCES", "Address": "512 Liberty Lane", "City": "West Kingston", "STATE": "RI", "Zip_Code": "2892", "ObjectId": 94, "AllOtherOrgsSummarized_field_1": "57", "award_count": "26", "total_funding_awarded": "635780", "recipient_type": "Non-profit organization" }, "geometry": { "type": "Point", "coordinates": [ -71.569587947499002, 41.480021375010097 ] } },
{ "type": "Feature", "properties": { "name": "GORDON RESEARCH CONFERENCES", "Address": "512 Liberty Lane", "City": "West Kingston", "STATE": "RI", "Zip_Code": "2892", "ObjectId": 95, "AllOtherOrgsSummarized_field_1": "57", "award_count": "26", "total_funding_awarded": "635780", "recipient_type": "Non-profit organization" }, "geometry": { "type": "Point", "coordinates": [ -71.569587947499002, 41.480021375010097 ] } },
{ "type": "Feature", "properties": { "name": "GORDON RESEARCH CONFERENCES", "Address": "512 Liberty Lane", "City": "West Kingston", "STATE": "RI", "Zip_Code": "2892", "ObjectId": 96, "AllOtherOrgsSummarized_field_1": "57", "award_count": "26", "total_funding_awarded": "635780", "recipient_type": "Non-profit organization" }, "geometry": { "type": "Point", "coordinates": [ -71.569587947499002, 41.480021375010097 ] } },
{ "type": "Feature", "properties": { "name": "GORDON RESEARCH CONFERENCES", "Address": "512 Liberty Lane", "City": "West Kingston", "STATE": "RI", "Zip_Code": "2892", "ObjectId": 97, "AllOtherOrgsSummarized_field_1": "57", "award_count": "26", "total_funding_awarded": "635780", "recipient_type": "Non-profit organization" }, "geometry": { "type": "Point", "coordinates": [ -71.569587947499002, 41.480021375010097 ] } },
{ "type": "Feature", "properties": { "name": "GORDON RESEARCH CONFERENCES", "Address": "512 Liberty Lane", "City": "West Kingston", "STATE": "RI", "Zip_Code": "2892", "ObjectId": 98, "AllOtherOrgsSummarized_field_1": "57", "award_count": "26", "total_funding_awarded": "635780", "recipient_type": "Non-profit organization" }, "geometry": { "type": "Point", "coordinates": [ -71.569587947499002, 41.480021375010097 ] } },
{ "type": "Feature", "properties": { "name": "GORDON RESEARCH CONFERENCES", "Address": "512 Liberty Lane", "City": "West Kingston", "STATE": "RI", "Zip_Code": "2892", "ObjectId": 99, "AllOtherOrgsSummarized_field_1": "57", "award_count": "26", "total_funding_awarded": "635780", "recipient_type": "Non-profit organization" }, "geometry": { "type": "Point", "coordinates": [ -71.569587947499002, 41.480021375010097 ] } },
{ "type": "Feature", "properties": { "name": "GORDON RESEARCH CONFERENCES", "Address": "512 Liberty Lane", "City": "West Kingston", "STATE": "RI", "Zip_Code": "2892", "ObjectId": 100, "AllOtherOrgsSummarized_field_1": "57", "award_count": "26", "total_funding_awarded": "635780", "recipient_type": "Non-profit organization" }, "geometry": { "type": "Point", "coordinates": [ -71.569587947499002, 41.480021375010097 ] } },
{ "type": "Feature", "properties": { "name": "GORDON RESEARCH CONFERENCES", "Address": "512 Liberty Lane", "City": "West Kingston", "STATE": "RI", "Zip_Code": "2892", "ObjectId": 101, "AllOtherOrgsSummarized_field_1": "57", "award_count": "26", "total_funding_awarded": "635780", "recipient_type": "Non-profit organization" }, "geometry": { "type": "Point", "coordinates": [ -71.569587947499002, 41.480021375010097 ] } },
{ "type": "Feature", "properties": { "name": "GORDON RESEARCH CONFERENCES", "Address": "512 Liberty Lane", "City": "West Kingston", "STATE": "RI", "Zip_Code": "2892", "ObjectId": 102, "AllOtherOrgsSummarized_field_1": "57", "award_count": "26", "total_funding_awarded": "635780", "recipient_type": "Non-profit organization" }, "geometry": { "type": "Point", "coordinates": [ -71.569587947499002, 41.480021375010097 ] } },
{ "type": "Feature", "properties": { "name": "GORDON RESEARCH CONFERENCES", "Address": "512 Liberty Lane", "City": "West Kingston", "STATE": "RI", "Zip_Code": "2892", "ObjectId": 103, "AllOtherOrgsSummarized_field_1": "57", "award_count": "26", "total_funding_awarded": "635780", "recipient_type": "Non-profit organization" }, "geometry": { "type": "Point", "coordinates": [ -71.569587947499002, 41.480021375010097 ] } },
{ "type": "Feature", "properties": { "name": "GORDON RESEARCH CONFERENCES", "Address": "512 Liberty Lane", "City": "West Kingston", "STATE": "RI", "Zip_Code": "2892", "ObjectId": 104, "AllOtherOrgsSummarized_field_1": "57", "award_count": "26", "total_funding_awarded": "635780", "recipient_type": "Non-profit organization" }, "geometry": { "type": "Point", "coordinates": [ -71.569587947499002, 41.480021375010097 ] } },
{ "type": "Feature", "properties": { "name": "GORDON RESEARCH CONFERENCES", "Address": "512 Liberty Lane", "City": "West Kingston", "STATE": "RI", "Zip_Code": "2892", "ObjectId": 105, "AllOtherOrgsSummarized_field_1": "57", "award_count": "26", "total_funding_awarded": "635780", "recipient_type": "Non-profit organization" }, "geometry": { "type": "Point", "coordinates": [ -71.569587947499002, 41.480021375010097 ] } },
{ "type": "Feature", "properties": { "name": "GORDON RESEARCH CONFERENCES", "Address": "512 Liberty Lane", "City": "West Kingston", "STATE": "RI", "Zip_Code": "2892", "ObjectId": 106, "AllOtherOrgsSummarized_field_1": "57", "award_count": "26", "total_funding_awarded": "635780", "recipient_type": "Non-profit organization" }, "geometry": { "type": "Point", "coordinates": [ -71.569587947499002, 41.480021375010097 ] } },
{ "type": "Feature", "properties": { "name": "GORDON RESEARCH CONFERENCES", "Address": "512 Liberty Lane", "City": "West Kingston", "STATE": "RI", "Zip_Code": "2892", "ObjectId": 107, "AllOtherOrgsSummarized_field_1": "57", "award_count": "26", "total_funding_awarded": "635780", "recipient_type": "Non-profit organization" }, "geometry": { "type": "Point", "coordinates": [ -71.569587947499002, 41.480021375010097 ] } },
{ "type": "Feature", "properties": { "name": "GREATER WASHINGTON EDUCATIONAL TELECOMMUNICATIONS ASSOCIATION, INC.", "Address": "3939 Campbell Ave", "City": "Arlington", "STATE": "VA", "Zip_Code": "22206", "ObjectId": 108, "AllOtherOrgsSummarized_field_1": "58", "award_count": "1", "total_funding_awarded": "1287634", "recipient_type": "Non-profit organization" }, "geometry": { "type": "Point", "coordinates": [ -77.086417729270806, 38.841122658239101 ] } },
{ "type": "Feature", "properties": { "name": "SUSTAINABLE MANUFACTURING INNOVATION ALLIANCE CORP", "Address": "150 Lucius Gordon Dr.", "City": "West Henrietta", "STATE": "NY", "Zip_Code": "14586", "ObjectId": 109, "AllOtherOrgsSummarized_field_1": "107", "award_count": "1", "total_funding_awarded": "50000", "recipient_type": "Non-profit organization" }, "geometry": { "type": "Point", "coordinates": [ -77.682847305321403, 43.070102940919398 ] } },
{ "type": "Feature", "properties": { "name": "TERC, INC.", "Address": "2067 Massachussetts Ave", "City": "Cambridge", "STATE": "MA", "Zip_Code": "2140", "ObjectId": 110, "AllOtherOrgsSummarized_field_1": "108", "award_count": "6", "total_funding_awarded": "7039717", "recipient_type": "Non-profit organization" }, "geometry": { "type": "Point", "coordinates": [ -71.122963852781197, 42.391586454083402 ] } },
{ "type": "Feature", "properties": { "name": "TERC, INC.", "Address": "2067 Massachussetts Ave", "City": "Cambridge", "STATE": "MA", "Zip_Code": "2140", "ObjectId": 111, "AllOtherOrgsSummarized_field_1": "108", "award_count": "6", "total_funding_awarded": "7039717", "recipient_type": "Non-profit organization" }, "geometry": { "type": "Point", "coordinates": [ -71.122963852781197, 42.391586454083402 ] } },
{ "type": "Feature", "properties": { "name": "TERC, INC.", "Address": "2067 Massachussetts Ave", "City": "Cambridge", "STATE": "MA", "Zip_Code": "2140", "ObjectId": 112, "AllOtherOrgsSummarized_field_1": "108", "award_count": "6", "total_funding_awarded": "7039717", "recipient_type": "Non-profit organization" }, "geometry": { "type": "Point", "coordinates": [ -71.122963852781197, 42.391586454083402 ] } },
{ "type": "Feature", "properties": { "name": "TERC, INC.", "Address": "2067 Massachussetts Ave", "City": "Cambridge", "STATE": "MA", "Zip_Code": "2140", "ObjectId": 113, "AllOtherOrgsSummarized_field_1": "108", "award_count": "6", "total_funding_awarded": "7039717", "recipient_type": "Non-profit organization" }, "geometry": { "type": "Point", "coordinates": [ -71.122963852781197, 42.391586454083402 ] } },
{ "type": "Feature", "properties": { "name": "TERC, INC.", "Address": "2067 Massachussetts Ave", "City": "Cambridge", "STATE": "MA", "Zip_Code": "2140", "ObjectId": 114, "AllOtherOrgsSummarized_field_1": "108", "award_count": "6", "total_funding_awarded": "7039717", "recipient_type": "Non-profit organization" }, "geometry": { "type": "Point", "coordinates": [ -71.122963852781197, 42.391586454083402 ] } },
{ "type": "Feature", "properties": { "name": "TERC, INC.", "Address": "2067 Massachussetts Ave", "City": "Cambridge", "STATE": "MA", "Zip_Code": "2140", "ObjectId": 115, "AllOtherOrgsSummarized_field_1": "108", "award_count": "6", "total_funding_awarded": "7039717", "recipient_type": "Non-profit organization" }, "geometry": { "type": "Point", "coordinates": [ -71.122963852781197, 42.391586454083402 ] } },
{ "type": "Feature", "properties": { "name": "THE AEROSPACE CORPORATION", "Address": "2310 E El Segundo Blvd", "City": "El Segundo", "STATE": "CA", "Zip_Code": "90245-4609", "ObjectId": 116, "AllOtherOrgsSummarized_field_1": "109", "award_count": "1", "total_funding_awarded": "558000", "recipient_type": "Non-profit organization" }, "geometry": { "type": "Point", "coordinates": [ -118.382342736122993, 33.916246719845802 ] } },
{ "type": "Feature", "properties": { "name": "THE AMERICAN MUSEUM OF NATURAL HISTORY", "Address": "Central Park West & 79th St", "City": "New York", "STATE": "NY", "Zip_Code": "10024", "ObjectId": 117, "AllOtherOrgsSummarized_field_1": "110", "award_count": "3", "total_funding_awarded": "1040546", "recipient_type": "Museum" }, "geometry": { "type": "Point", "coordinates": [ -73.963757973796902, 40.776947001281101 ] } },
{ "type": "Feature", "properties": { "name": "THE AMERICAN MUSEUM OF NATURAL HISTORY", "Address": "Central Park West & 79th St", "City": "New York", "STATE": "NY", "Zip_Code": "10024", "ObjectId": 118, "AllOtherOrgsSummarized_field_1": "110", "award_count": "3", "total_funding_awarded": "1040546", "recipient_type": "Museum" }, "geometry": { "type": "Point", "coordinates": [ -73.963757973796902, 40.776947001281101 ] } },
{ "type": "Feature", "properties": { "name": "THE AMERICAN MUSEUM OF NATURAL HISTORY", "Address": "Central Park West & 79th St", "City": "New York", "STATE": "NY", "Zip_Code": "10024", "ObjectId": 119, "AllOtherOrgsSummarized_field_1": "110", "award_count": "3", "total_funding_awarded": "1040546", "recipient_type": "Museum" }, "geometry": { "type": "Point", "coordinates": [ -73.963757973796902, 40.776947001281101 ] } },
{ "type": "Feature", "properties": { "name": "THE EXPLORATORIUM", "Address": "Pier 15", "City": "San Francisco", "STATE": "CA", "Zip_Code": "94111", "ObjectId": 120, "AllOtherOrgsSummarized_field_1": "112", "award_count": "1", "total_funding_awarded": "499231", "recipient_type": "Museum" }, "geometry": { "type": "Point", "coordinates": [ -122.396360260959, 37.795024876123598 ] } },
{ "type": "Feature", "properties": { "name": "THE GEOLOGICAL SOCIETY OF AMERICA, INC.", "Address": "3300 Penrose Place", "City": "Boulder", "STATE": "CO", "Zip_Code": "80301", "ObjectId": 121, "AllOtherOrgsSummarized_field_1": "113", "award_count": "2", "total_funding_awarded": "1095498", "recipient_type": "Non-profit organization" }, "geometry": { "type": "Point", "coordinates": [ -105.250537761244999, 40.037486534682699 ] } },
{ "type": "Feature", "properties": { "name": "THE GEOLOGICAL SOCIETY OF AMERICA, INC.", "Address": "3300 Penrose Place", "City": "Boulder", "STATE": "CO", "Zip_Code": "80301", "ObjectId": 122, "AllOtherOrgsSummarized_field_1": "113", "award_count": "2", "total_funding_awarded": "1095498", "recipient_type": "Non-profit organization" }, "geometry": { "type": "Point", "coordinates": [ -105.250537761244999, 40.037486534682699 ] } },
{ "type": "Feature", "properties": { "name": "THE GLOBAL FUND FOR WOMEN, INC.", "Address": "800 Market St", "City": "San Francisco", "STATE": "CA", "Zip_Code": "94102", "ObjectId": 123, "AllOtherOrgsSummarized_field_1": "114", "award_count": "1", "total_funding_awarded": "299941", "recipient_type": "Non-profit organization" }, "geometry": { "type": "Point", "coordinates": [ -122.406628999090998, 37.785475010971801 ] } },
{ "type": "Feature", "properties": { "name": "THE LEARNING NETWORK, LLC", "Address": "1915 Natchez Trce", "City": "Allen", "STATE": "TX", "Zip_Code": "75013", "ObjectId": 124, "AllOtherOrgsSummarized_field_1": "115", "award_count": "1", "total_funding_awarded": "295000", "recipient_type": "Small business" }, "geometry": { "type": "Point", "coordinates": [ -96.680687589439799, 33.127572039775998 ] } },
{ "type": "Feature", "properties": { "name": "THE MARINE BIOLOGICAL LABORATORY", "Address": "100 Water St", "City": "Woods Hole", "STATE": "MA", "Zip_Code": "2543", "ObjectId": 125, "AllOtherOrgsSummarized_field_1": "116", "award_count": "1", "total_funding_awarded": "49297", "recipient_type": "Non-profit organization" }, "geometry": { "type": "Point", "coordinates": [ -70.672409986224693, 41.524957722124398 ] } },
{ "type": "Feature", "properties": { "name": "THE MATHEMATICAL ASSOCIATION OF AMERICA", "Address": "11 Dunpont Circle NW", "City": "Washington", "STATE": "DC", "Zip_Code": "20036", "ObjectId": 126, "AllOtherOrgsSummarized_field_1": "117", "award_count": "1", "total_funding_awarded": "49736", "recipient_type": "Non-profit organization" }, "geometry": { "type": "Point", "coordinates": [ -77.042583057864803, 38.910107649100802 ] } },
{ "type": "Feature", "properties": { "name": "THE MATHEMATICAL ASSOCIATION OF AMERICA", "Address": "11 Dunpont Circle NW", "City": "Washington", "STATE": "DC", "Zip_Code": "20036", "ObjectId": 127, "AllOtherOrgsSummarized_field_1": "117", "award_count": "1", "total_funding_awarded": "49736", "recipient_type": "Non-profit organization" }, "geometry": { "type": "Point", "coordinates": [ -77.042583057864803, 38.910107649100802 ] } },
{ "type": "Feature", "properties": { "name": "THE MITRE CORPORATION", "Address": "7515 Colshire Dr", "City": "McLean", "STATE": "VA", "Zip_Code": "22102", "ObjectId": 128, "AllOtherOrgsSummarized_field_1": "119", "award_count": "2", "total_funding_awarded": "494038", "recipient_type": "Non-profit organization" }, "geometry": { "type": "Point", "coordinates": [ -77.2050056504509, 38.922233287557901 ] } },
{ "type": "Feature", "properties": { "name": "THE MORTON ARBORETUM", "Address": "4100 Illinois Rte 53", "City": "Lisle", "STATE": "IL", "Zip_Code": "60532", "ObjectId": 130, "AllOtherOrgsSummarized_field_1": "120", "award_count": "1", "total_funding_awarded": "328693", "recipient_type": "Museum" }, "geometry": { "type": "Point", "coordinates": [ -88.071069238060204, 41.817907298883902 ] } },
{ "type": "Feature", "properties": { "name": "THE OCEANOGRAPHY SOCIETY", "Address": "104 Lynch St", "City": "Rockville", "STATE": "MD", "Zip_Code": "20850", "ObjectId": 131, "AllOtherOrgsSummarized_field_1": "121", "award_count": "1", "total_funding_awarded": "35959", "recipient_type": "Non-profit organization" }, "geometry": { "type": "Point", "coordinates": [ -77.162510071587803, 39.0866609568779 ] } },
{ "type": "Feature", "properties": { "name": "THE RAND CORPORATION", "Address": "1776 Main St", "City": "Santa Monica", "STATE": "CA", "Zip_Code": "90401", "ObjectId": 132, "AllOtherOrgsSummarized_field_1": "122", "award_count": "1", "total_funding_awarded": "74935", "recipient_type": "Non-profit organization" }, "geometry": { "type": "Point", "coordinates": [ -118.490881527612999, 34.009484669282301 ] } },
{ "type": "Feature", "properties": { "name": "THE URBAN INSTITUTE", "Address": "500 Lenfant Plz SW", "City": "Washington", "STATE": "DC", "Zip_Code": "20024", "ObjectId": 133, "AllOtherOrgsSummarized_field_1": "123", "award_count": "1", "total_funding_awarded": "400000", "recipient_type": "Non-profit organization" }, "geometry": { "type": "Point", "coordinates": [ -77.023580194260902, 38.883257563453697 ] } },
{ "type": "Feature", "properties": { "name": "UNIVERSITY CORPORATION FOR ATMOSPHERIC RESEARCH", "Address": "3080 Center Green Dr", "City": "Boulder", "STATE": "CO", "Zip_Code": "80301", "ObjectId": 135, "AllOtherOrgsSummarized_field_1": "124", "award_count": "6", "total_funding_awarded": "15811607", "recipient_type": "Non-profit organization" }, "geometry": { "type": "Point", "coordinates": [ -105.245504009330006, 40.032191267146402 ] } },
{ "type": "Feature", "properties": { "name": "UNIVERSITY CORPORATION FOR ATMOSPHERIC RESEARCH", "Address": "3080 Center Green Dr", "City": "Boulder", "STATE": "CO", "Zip_Code": "80301", "ObjectId": 136, "AllOtherOrgsSummarized_field_1": "124", "award_count": "6", "total_funding_awarded": "15811607", "recipient_type": "Non-profit organization" }, "geometry": { "type": "Point", "coordinates": [ -105.245504009330006, 40.032191267146402 ] } },
{ "type": "Feature", "properties": { "name": "UNIVERSITY CORPORATION FOR ATMOSPHERIC RESEARCH", "Address": "3080 Center Green Dr", "City": "Boulder", "STATE": "CO", "Zip_Code": "80301", "ObjectId": 137, "AllOtherOrgsSummarized_field_1": "124", "award_count": "6", "total_funding_awarded": "15811607", "recipient_type": "Non-profit organization" }, "geometry": { "type": "Point", "coordinates": [ -105.245504009330006, 40.032191267146402 ] } },
{ "type": "Feature", "properties": { "name": "UNIVERSITY CORPORATION FOR ATMOSPHERIC RESEARCH", "Address": "3080 Center Green Dr", "City": "Boulder", "STATE": "CO", "Zip_Code": "80301", "ObjectId": 138, "AllOtherOrgsSummarized_field_1": "124", "award_count": "6", "total_funding_awarded": "15811607", "recipient_type": "Non-profit organization" }, "geometry": { "type": "Point", "coordinates": [ -105.245504009330006, 40.032191267146402 ] } },
{ "type": "Feature", "properties": { "name": "UNIVERSITY CORPORATION FOR ATMOSPHERIC RESEARCH", "Address": "3080 Center Green Dr", "City": "Boulder", "STATE": "CO", "Zip_Code": "80301", "ObjectId": 139, "AllOtherOrgsSummarized_field_1": "124", "award_count": "6", "total_funding_awarded": "15811607", "recipient_type": "Non-profit organization" }, "geometry": { "type": "Point", "coordinates": [ -105.245504009330006, 40.032191267146402 ] } },
{ "type": "Feature", "properties": { "name": "UNIVERSITY CORPORATION FOR ATMOSPHERIC RESEARCH", "Address": "3080 Center Green Dr", "City": "Boulder", "STATE": "CO", "Zip_Code": "80301", "ObjectId": 140, "AllOtherOrgsSummarized_field_1": "124", "award_count": "6", "total_funding_awarded": "15811607", "recipient_type": "Non-profit organization" }, "geometry": { "type": "Point", "coordinates": [ -105.245504009330006, 40.032191267146402 ] } },
{ "type": "Feature", "properties": { "name": "US IGNITE, INC.", "Address": "1150 18th St NW", "City": "Washington", "STATE": "DC", "Zip_Code": "20036", "ObjectId": 141, "AllOtherOrgsSummarized_field_1": "125", "award_count": "1", "total_funding_awarded": "299636", "recipient_type": "Non-profit organization" }, "geometry": { "type": "Point", "coordinates": [ -77.042209560827601, 38.904471364262598 ] } },
{ "type": "Feature", "properties": { "name": "USENIX ASSOCIATION", "Address": "2560 9th St", "City": "Berkeley", "STATE": "WA", "Zip_Code": "94710", "ObjectId": 142, "AllOtherOrgsSummarized_field_1": "126", "award_count": "1", "total_funding_awarded": "50000", "recipient_type": "Non-profit organization" }, "geometry": { "type": "Point", "coordinates": [ -122.291789968577007, 37.859590020036897 ] } },
{ "type": "Feature", "properties": { "name": "VANDERBILT UNIVERSITY MEDICAL CENTER", "Address": "1211 Medical Center Drive", "City": "Nashville", "STATE": "TN", "Zip_Code": "37232", "ObjectId": 143, "AllOtherOrgsSummarized_field_1": "127", "award_count": "1", "total_funding_awarded": "20000", "recipient_type": "Medical center" }, "geometry": { "type": "Point", "coordinates": [ -86.801597637058805, 36.142406531415702 ] } },
{ "type": "Feature", "properties": { "name": "VECTECH, INC.", "Address": "3600 Clipper Mill Rd", "City": "Baltimore", "STATE": "MD", "Zip_Code": "21211", "ObjectId": 144, "AllOtherOrgsSummarized_field_1": "128", "award_count": "1", "total_funding_awarded": "999479", "recipient_type": "Small business" }, "geometry": { "type": "Point", "coordinates": [ -76.642469138167598, 39.3309161945893 ] } },
{ "type": "Feature", "properties": { "name": "VIRGINIA BIOTECHNOLOGY RESEARCH PARK", "Address": "800 E Leigh St", "City": "Richmond", "STATE": "VA", "Zip_Code": "23219-1534", "ObjectId": 145, "AllOtherOrgsSummarized_field_1": "129", "award_count": "1", "total_funding_awarded": "1000000", "recipient_type": "Medical center" }, "geometry": { "type": "Point", "coordinates": [ -77.431268672501304, 37.544267097490703 ] } },
{ "type": "Feature", "properties": { "name": "VIRTUAL APPRENTICE LLC", "Address": "1 Research Ct Ste 450", "City": "Rockville", "STATE": "MD", "Zip_Code": "20850", "ObjectId": 146, "AllOtherOrgsSummarized_field_1": "130", "award_count": "1", "total_funding_awarded": "276000", "recipient_type": "Small business" }, "geometry": { "type": "Point", "coordinates": [ -77.185129223742194, 39.106515464274899 ] } },
{ "type": "Feature", "properties": { "name": "WEST VIRGINIA UNIVERSITY RESEARCH CORPORATION", "Address": "886 Chestnut Ridge Road", "City": "Morgantown", "STATE": "WV", "Zip_Code": "26506", "ObjectId": 147, "AllOtherOrgsSummarized_field_1": "131", "award_count": "10", "total_funding_awarded": "2382816", "recipient_type": "Research institute" }, "geometry": { "type": "Point", "coordinates": [ -79.955266081201103, 39.657104285287602 ] } },
{ "type": "Feature", "properties": { "name": "WEST VIRGINIA UNIVERSITY RESEARCH CORPORATION", "Address": "886 Chestnut Ridge Road", "City": "Morgantown", "STATE": "WV", "Zip_Code": "26506", "ObjectId": 148, "AllOtherOrgsSummarized_field_1": "131", "award_count": "10", "total_funding_awarded": "2382816", "recipient_type": "Research institute" }, "geometry": { "type": "Point", "coordinates": [ -79.955266081201103, 39.657104285287602 ] } },
{ "type": "Feature", "properties": { "name": "WEST VIRGINIA UNIVERSITY RESEARCH CORPORATION", "Address": "886 Chestnut Ridge Road", "City": "Morgantown", "STATE": "WV", "Zip_Code": "26506", "ObjectId": 149, "AllOtherOrgsSummarized_field_1": "131", "award_count": "10", "total_funding_awarded": "2382816", "recipient_type": "Research institute" }, "geometry": { "type": "Point", "coordinates": [ -79.955266081201103, 39.657104285287602 ] } },
{ "type": "Feature", "properties": { "name": "WEST VIRGINIA UNIVERSITY RESEARCH CORPORATION", "Address": "886 Chestnut Ridge Road", "City": "Morgantown", "STATE": "WV", "Zip_Code": "26506", "ObjectId": 150, "AllOtherOrgsSummarized_field_1": "131", "award_count": "10", "total_funding_awarded": "2382816", "recipient_type": "Research institute" }, "geometry": { "type": "Point", "coordinates": [ -79.955266081201103, 39.657104285287602 ] } },
{ "type": "Feature", "properties": { "name": "WEST VIRGINIA UNIVERSITY RESEARCH CORPORATION", "Address": "886 Chestnut Ridge Road", "City": "Morgantown", "STATE": "WV", "Zip_Code": "26506", "ObjectId": 151, "AllOtherOrgsSummarized_field_1": "131", "award_count": "10", "total_funding_awarded": "2382816", "recipient_type": "Research institute" }, "geometry": { "type": "Point", "coordinates": [ -79.955266081201103, 39.657104285287602 ] } },
{ "type": "Feature", "properties": { "name": "WEST VIRGINIA UNIVERSITY RESEARCH CORPORATION", "Address": "886 Chestnut Ridge Road", "City": "Morgantown", "STATE": "WV", "Zip_Code": "26506", "ObjectId": 152, "AllOtherOrgsSummarized_field_1": "131", "award_count": "10", "total_funding_awarded": "2382816", "recipient_type": "Research institute" }, "geometry": { "type": "Point", "coordinates": [ -79.955266081201103, 39.657104285287602 ] } },
{ "type": "Feature", "properties": { "name": "WEST VIRGINIA UNIVERSITY RESEARCH CORPORATION", "Address": "886 Chestnut Ridge Road", "City": "Morgantown", "STATE": "WV", "Zip_Code": "26506", "ObjectId": 153, "AllOtherOrgsSummarized_field_1": "131", "award_count": "10", "total_funding_awarded": "2382816", "recipient_type": "Research institute" }, "geometry": { "type": "Point", "coordinates": [ -79.955266081201103, 39.657104285287602 ] } },
{ "type": "Feature", "properties": { "name": "WEST VIRGINIA UNIVERSITY RESEARCH CORPORATION", "Address": "886 Chestnut Ridge Road", "City": "Morgantown", "STATE": "WV", "Zip_Code": "26506", "ObjectId": 154, "AllOtherOrgsSummarized_field_1": "131", "award_count": "10", "total_funding_awarded": "2382816", "recipient_type": "Research institute" }, "geometry": { "type": "Point", "coordinates": [ -79.955266081201103, 39.657104285287602 ] } },
{ "type": "Feature", "properties": { "name": "WEST VIRGINIA UNIVERSITY RESEARCH CORPORATION", "Address": "886 Chestnut Ridge Road", "City": "Morgantown", "STATE": "WV", "Zip_Code": "26506", "ObjectId": 155, "AllOtherOrgsSummarized_field_1": "131", "award_count": "10", "total_funding_awarded": "2382816", "recipient_type": "Research institute" }, "geometry": { "type": "Point", "coordinates": [ -79.955266081201103, 39.657104285287602 ] } },
{ "type": "Feature", "properties": { "name": "WEST VIRGINIA UNIVERSITY RESEARCH CORPORATION", "Address": "886 Chestnut Ridge Road", "City": "Morgantown", "STATE": "WV", "Zip_Code": "26506", "ObjectId": 156, "AllOtherOrgsSummarized_field_1": "131", "award_count": "10", "total_funding_awarded": "2382816", "recipient_type": "Research institute" }, "geometry": { "type": "Point", "coordinates": [ -79.955266081201103, 39.657104285287602 ] } },
{ "type": "Feature", "properties": { "name": "WESTED", "Address": "730 Harrison St", "City": "San Francisco", "STATE": "CA", "Zip_Code": "94107", "ObjectId": 157, "AllOtherOrgsSummarized_field_1": "132", "award_count": "2", "total_funding_awarded": "369470", "recipient_type": "Non-profit organization" }, "geometry": { "type": "Point", "coordinates": [ -122.398485142219997, 37.782178156731099 ] } },
{ "type": "Feature", "properties": { "name": "WESTED", "Address": "730 Harrison St", "City": "San Francisco", "STATE": "CA", "Zip_Code": "94107", "ObjectId": 158, "AllOtherOrgsSummarized_field_1": "132", "award_count": "2", "total_funding_awarded": "369470", "recipient_type": "Non-profit organization" }, "geometry": { "type": "Point", "coordinates": [ -122.398485142219997, 37.782178156731099 ] } },
{ "type": "Feature", "properties": { "name": "WOMEN IN ENGINEERING PROGRAMS & ADVOCATES NETWORK", "Address": "2001 L St. NW", "City": "Washington", "STATE": "DC", "Zip_Code": "20036", "ObjectId": 159, "AllOtherOrgsSummarized_field_1": "133", "award_count": "1", "total_funding_awarded": "99922", "recipient_type": "Small business" }, "geometry": { "type": "Point", "coordinates": [ -77.045296699454894, 38.904046988691597 ] } },
{ "type": "Feature", "properties": { "name": "WOODWELL CLIMATE RESEARCH CENTER INC", "Address": "149 Woods Hole Rd", "City": "Falmouth", "STATE": "MA", "Zip_Code": "2540", "ObjectId": 160, "AllOtherOrgsSummarized_field_1": "134", "award_count": "1", "total_funding_awarded": "319434", "recipient_type": "Research institute" }, "geometry": { "type": "Point", "coordinates": [ -70.643522008233802, 41.549493145043201 ] } },
{ "type": "Feature", "properties": { "name": "ZENOBIA THERAPEUTICS, INC", "Address": "3550 General Atomics Ct", "City": "San Diego", "STATE": "CA", "Zip_Code": "92121", "ObjectId": 161, "AllOtherOrgsSummarized_field_1": "135", "award_count": "1", "total_funding_awarded": "1018000", "recipient_type": "Small business" }, "geometry": { "type": "Point", "coordinates": [ -117.236063600361007, 32.893853985473797 ] } },
{ "type": "Feature", "properties": { "name": "ZIKER ENTERPRISES LLC", "Address": "2769 Sunbonnet Ct", "City": "San Jose", "STATE": "CA", "Zip_Code": "95125", "ObjectId": 162, "AllOtherOrgsSummarized_field_1": "136", "award_count": "1", "total_funding_awarded": "50000", "recipient_type": "Small business" }, "geometry": { "type": "Point", "coordinates": [ -121.878519897252005, 37.282803350576302 ] } },
{ "type": "Feature", "properties": { "name": "NATRX INC", "Address": "6220 Angus Dr", "City": "Umstead", "STATE": "NC", "Zip_Code": "27617", "ObjectId": 163, "AllOtherOrgsSummarized_field_1": "86", "award_count": "1", "total_funding_awarded": "995338", "recipient_type": "Small business" }, "geometry": { "type": "Point", "coordinates": [ -78.7558682906744, 35.899183734342103 ] } },
{ "type": "Feature", "properties": { "name": "NERRATIVE TECHNOLOGY INC", "Address": "426 Spring Oak Rd", "City": "Camarillo", "STATE": "CA", "Zip_Code": "93010", "ObjectId": 164, "AllOtherOrgsSummarized_field_1": "87", "award_count": "1", "total_funding_awarded": "295000", "recipient_type": "Small business" }, "geometry": { "type": "Point", "coordinates": [ -119.072561803354006, 34.221379517024097 ] } },
{ "type": "Feature", "properties": { "name": "NEW YORK HALL OF SCIENCE", "Address": "47-01 111th St", "City": "Corona", "STATE": "NY", "Zip_Code": "11368", "ObjectId": 165, "AllOtherOrgsSummarized_field_1": "88", "award_count": "2", "total_funding_awarded": "1545601", "recipient_type": "Museum" }, "geometry": { "type": "Point", "coordinates": [ -73.852261311248895, 40.747054368374698 ] } },
{ "type": "Feature", "properties": { "name": "NEW YORK HALL OF SCIENCE", "Address": "47-01 111th St", "City": "Corona", "STATE": "NY", "Zip_Code": "11368", "ObjectId": 166, "AllOtherOrgsSummarized_field_1": "88", "award_count": "2", "total_funding_awarded": "1545601", "recipient_type": "Museum" }, "geometry": { "type": "Point", "coordinates": [ -73.852261311248895, 40.747054368374698 ] } },
{ "type": "Feature", "properties": { "name": "OREGON MUSEUM OF SCIENCE AND INDUSTRY", "Address": "1945 SE Water Ave", "City": "Portland", "STATE": "OR", "Zip_Code": "97214", "ObjectId": 167, "AllOtherOrgsSummarized_field_1": "89", "award_count": "2", "total_funding_awarded": "2098538", "recipient_type": "Museum" }, "geometry": { "type": "Point", "coordinates": [ -122.665663502344003, 45.508003954666002 ] } },
{ "type": "Feature", "properties": { "name": "OREGON MUSEUM OF SCIENCE AND INDUSTRY", "Address": "1945 SE Water Ave", "City": "Portland", "STATE": "OR", "Zip_Code": "97214", "ObjectId": 168, "AllOtherOrgsSummarized_field_1": "89", "award_count": "2", "total_funding_awarded": "2098538", "recipient_type": "Museum" }, "geometry": { "type": "Point", "coordinates": [ -122.665663502344003, 45.508003954666002 ] } },
{ "type": "Feature", "properties": { "name": "OREGON RESEARCH INSTITUTE", "Address": "3800 Sports Way", "City": "Springfield", "STATE": "OR", "Zip_Code": "97477-2019", "ObjectId": 169, "AllOtherOrgsSummarized_field_1": "90", "award_count": "1", "total_funding_awarded": "18709", "recipient_type": "Research institute" }, "geometry": { "type": "Point", "coordinates": [ -123.043080737192994, 44.089259721253498 ] } },
{ "type": "Feature", "properties": { "name": "PHYTUNES INC", "Address": "616 Ramona St", "City": "Palo Alto", "STATE": "CA", "Zip_Code": "94301", "ObjectId": 170, "AllOtherOrgsSummarized_field_1": "91", "award_count": "1", "total_funding_awarded": "250104", "recipient_type": "Small business" }, "geometry": { "type": "Point", "coordinates": [ -122.160593989364997, 37.444087763836301 ] } },
{ "type": "Feature", "properties": { "name": "PRAIRIELEARN, INC.", "Address": "60 Hazelwood Drive", "City": "Champaign", "STATE": "IL", "Zip_Code": "61820", "ObjectId": 171, "AllOtherOrgsSummarized_field_1": "92", "award_count": "1", "total_funding_awarded": "274981", "recipient_type": "Small business" }, "geometry": { "type": "Point", "coordinates": [ -88.239978657839302, 40.091146430767601 ] } },
{ "type": "Feature", "properties": { "name": "PRENOSTIK LLC", "Address": "21 Meadow Gln", "City": "Irvine", "STATE": "CA", "Zip_Code": "92602", "ObjectId": 172, "AllOtherOrgsSummarized_field_1": "93", "award_count": "1", "total_funding_awarded": "294471", "recipient_type": "Small business" }, "geometry": { "type": "Point", "coordinates": [ -117.783509165964006, 33.731373164037002 ] } },
{ "type": "Feature", "properties": { "name": "PUBLIC POLICY LAB", "Address": "20 Jay St", "City": "Brooklyn", "STATE": "NY", "Zip_Code": "11201", "ObjectId": 173, "AllOtherOrgsSummarized_field_1": "94", "award_count": "1", "total_funding_awarded": "1078880", "recipient_type": "Research institute" }, "geometry": { "type": "Point", "coordinates": [ -73.9866950523067, 40.704099629404702 ] } },
{ "type": "Feature", "properties": { "name": "QUALITY EDUCATION FOR MINORITIES NETWORK (INC)", "Address": "1818 N St NW", "City": "Washington", "STATE": "DC", "Zip_Code": "20036-2404", "ObjectId": 174, "AllOtherOrgsSummarized_field_1": "95", "award_count": "3", "total_funding_awarded": "1357885", "recipient_type": "Non-profit organization" }, "geometry": { "type": "Point", "coordinates": [ -77.042929062861106, 38.9069900006211 ] } },
{ "type": "Feature", "properties": { "name": "QUALITY EDUCATION FOR MINORITIES NETWORK (INC)", "Address": "1818 N St NW", "City": "Washington", "STATE": "DC", "Zip_Code": "20036-2404", "ObjectId": 175, "AllOtherOrgsSummarized_field_1": "95", "award_count": "3", "total_funding_awarded": "1357885", "recipient_type": "Non-profit organization" }, "geometry": { "type": "Point", "coordinates": [ -77.042929062861106, 38.9069900006211 ] } },
{ "type": "Feature", "properties": { "name": "QUALITY EDUCATION FOR MINORITIES NETWORK (INC)", "Address": "1818 N St NW", "City": "Washington", "STATE": "DC", "Zip_Code": "20036-2404", "ObjectId": 176, "AllOtherOrgsSummarized_field_1": "95", "award_count": "3", "total_funding_awarded": "1357885", "recipient_type": "Non-profit organization" }, "geometry": { "type": "Point", "coordinates": [ -77.042929062861106, 38.9069900006211 ] } },
{ "type": "Feature", "properties": { "name": "QUANTWORKS, INC.", "Address": "202 S Greensboro St", "City": "Carrboro", "STATE": "NC", "Zip_Code": "27510", "ObjectId": 177, "AllOtherOrgsSummarized_field_1": "96", "award_count": "1", "total_funding_awarded": "255719", "recipient_type": "Small business" }, "geometry": { "type": "Point", "coordinates": [ -79.072736668787201, 35.909185984740702 ] } },
{ "type": "Feature", "properties": { "name": "RESEARCH FOUNDATION OF THE CITY UNIVERSITY OF NEW YORK", "Address": "230 W 41st St", "City": "New York", "STATE": "NY", "Zip_Code": "10036", "ObjectId": 178, "AllOtherOrgsSummarized_field_1": "97", "award_count": "33", "total_funding_awarded": "23860463", "recipient_type": "Non-profit organization" }, "geometry": { "type": "Point", "coordinates": [ -73.988791031171999, 40.7558409502724 ] } },
{ "type": "Feature", "properties": { "name": "RESEARCH FOUNDATION OF THE CITY UNIVERSITY OF NEW YORK", "Address": "230 W 41st St", "City": "New York", "STATE": "NY", "Zip_Code": "10036", "ObjectId": 179, "AllOtherOrgsSummarized_field_1": "97", "award_count": "33", "total_funding_awarded": "23860463", "recipient_type": "Non-profit organization" }, "geometry": { "type": "Point", "coordinates": [ -73.988791031171999, 40.7558409502724 ] } },
{ "type": "Feature", "properties": { "name": "RESEARCH FOUNDATION OF THE CITY UNIVERSITY OF NEW YORK", "Address": "230 W 41st St", "City": "New York", "STATE": "NY", "Zip_Code": "10036", "ObjectId": 180, "AllOtherOrgsSummarized_field_1": "97", "award_count": "33", "total_funding_awarded": "23860463", "recipient_type": "Non-profit organization" }, "geometry": { "type": "Point", "coordinates": [ -73.988791031171999, 40.7558409502724 ] } },
{ "type": "Feature", "properties": { "name": "RESEARCH FOUNDATION OF THE CITY UNIVERSITY OF NEW YORK", "Address": "230 W 41st St", "City": "New York", "STATE": "NY", "Zip_Code": "10036", "ObjectId": 181, "AllOtherOrgsSummarized_field_1": "97", "award_count": "33", "total_funding_awarded": "23860463", "recipient_type": "Non-profit organization" }, "geometry": { "type": "Point", "coordinates": [ -73.988791031171999, 40.7558409502724 ] } },
{ "type": "Feature", "properties": { "name": "RESEARCH FOUNDATION OF THE CITY UNIVERSITY OF NEW YORK", "Address": "230 W 41st St", "City": "New York", "STATE": "NY", "Zip_Code": "10036", "ObjectId": 182, "AllOtherOrgsSummarized_field_1": "97", "award_count": "33", "total_funding_awarded": "23860463", "recipient_type": "Non-profit organization" }, "geometry": { "type": "Point", "coordinates": [ -73.988791031171999, 40.7558409502724 ] } },
{ "type": "Feature", "properties": { "name": "RESEARCH FOUNDATION OF THE CITY UNIVERSITY OF NEW YORK", "Address": "230 W 41st St", "City": "New York", "STATE": "NY", "Zip_Code": "10036", "ObjectId": 183, "AllOtherOrgsSummarized_field_1": "97", "award_count": "33", "total_funding_awarded": "23860463", "recipient_type": "Non-profit organization" }, "geometry": { "type": "Point", "coordinates": [ -73.988791031171999, 40.7558409502724 ] } },
{ "type": "Feature", "properties": { "name": "RESEARCH FOUNDATION OF THE CITY UNIVERSITY OF NEW YORK", "Address": "230 W 41st St", "City": "New York", "STATE": "NY", "Zip_Code": "10036", "ObjectId": 184, "AllOtherOrgsSummarized_field_1": "97", "award_count": "33", "total_funding_awarded": "23860463", "recipient_type": "Non-profit organization" }, "geometry": { "type": "Point", "coordinates": [ -73.988791031171999, 40.7558409502724 ] } },
{ "type": "Feature", "properties": { "name": "RESEARCH FOUNDATION OF THE CITY UNIVERSITY OF NEW YORK", "Address": "230 W 41st St", "City": "New York", "STATE": "NY", "Zip_Code": "10036", "ObjectId": 185, "AllOtherOrgsSummarized_field_1": "97", "award_count": "33", "total_funding_awarded": "23860463", "recipient_type": "Non-profit organization" }, "geometry": { "type": "Point", "coordinates": [ -73.988791031171999, 40.7558409502724 ] } },
{ "type": "Feature", "properties": { "name": "RESEARCH FOUNDATION OF THE CITY UNIVERSITY OF NEW YORK", "Address": "230 W 41st St", "City": "New York", "STATE": "NY", "Zip_Code": "10036", "ObjectId": 186, "AllOtherOrgsSummarized_field_1": "97", "award_count": "33", "total_funding_awarded": "23860463", "recipient_type": "Non-profit organization" }, "geometry": { "type": "Point", "coordinates": [ -73.988791031171999, 40.7558409502724 ] } },
{ "type": "Feature", "properties": { "name": "RESEARCH FOUNDATION OF THE CITY UNIVERSITY OF NEW YORK", "Address": "230 W 41st St", "City": "New York", "STATE": "NY", "Zip_Code": "10036", "ObjectId": 187, "AllOtherOrgsSummarized_field_1": "97", "award_count": "33", "total_funding_awarded": "23860463", "recipient_type": "Non-profit organization" }, "geometry": { "type": "Point", "coordinates": [ -73.988791031171999, 40.7558409502724 ] } },
{ "type": "Feature", "properties": { "name": "RESEARCH FOUNDATION OF THE CITY UNIVERSITY OF NEW YORK", "Address": "230 W 41st St", "City": "New York", "STATE": "NY", "Zip_Code": "10036", "ObjectId": 188, "AllOtherOrgsSummarized_field_1": "97", "award_count": "33", "total_funding_awarded": "23860463", "recipient_type": "Non-profit organization" }, "geometry": { "type": "Point", "coordinates": [ -73.988791031171999, 40.7558409502724 ] } },
{ "type": "Feature", "properties": { "name": "RESEARCH FOUNDATION OF THE CITY UNIVERSITY OF NEW YORK", "Address": "230 W 41st St", "City": "New York", "STATE": "NY", "Zip_Code": "10036", "ObjectId": 189, "AllOtherOrgsSummarized_field_1": "97", "award_count": "33", "total_funding_awarded": "23860463", "recipient_type": "Non-profit organization" }, "geometry": { "type": "Point", "coordinates": [ -73.988791031171999, 40.7558409502724 ] } },
{ "type": "Feature", "properties": { "name": "RESEARCH FOUNDATION OF THE CITY UNIVERSITY OF NEW YORK", "Address": "230 W 41st St", "City": "New York", "STATE": "NY", "Zip_Code": "10036", "ObjectId": 190, "AllOtherOrgsSummarized_field_1": "97", "award_count": "33", "total_funding_awarded": "23860463", "recipient_type": "Non-profit organization" }, "geometry": { "type": "Point", "coordinates": [ -73.988791031171999, 40.7558409502724 ] } },
{ "type": "Feature", "properties": { "name": "RESEARCH FOUNDATION OF THE CITY UNIVERSITY OF NEW YORK", "Address": "230 W 41st St", "City": "New York", "STATE": "NY", "Zip_Code": "10036", "ObjectId": 191, "AllOtherOrgsSummarized_field_1": "97", "award_count": "33", "total_funding_awarded": "23860463", "recipient_type": "Non-profit organization" }, "geometry": { "type": "Point", "coordinates": [ -73.988791031171999, 40.7558409502724 ] } },
{ "type": "Feature", "properties": { "name": "RESEARCH FOUNDATION OF THE CITY UNIVERSITY OF NEW YORK", "Address": "230 W 41st St", "City": "New York", "STATE": "NY", "Zip_Code": "10036", "ObjectId": 192, "AllOtherOrgsSummarized_field_1": "97", "award_count": "33", "total_funding_awarded": "23860463", "recipient_type": "Non-profit organization" }, "geometry": { "type": "Point", "coordinates": [ -73.988791031171999, 40.7558409502724 ] } },
{ "type": "Feature", "properties": { "name": "RESEARCH FOUNDATION OF THE CITY UNIVERSITY OF NEW YORK", "Address": "230 W 41st St", "City": "New York", "STATE": "NY", "Zip_Code": "10036", "ObjectId": 193, "AllOtherOrgsSummarized_field_1": "97", "award_count": "33", "total_funding_awarded": "23860463", "recipient_type": "Non-profit organization" }, "geometry": { "type": "Point", "coordinates": [ -73.988791031171999, 40.7558409502724 ] } },
{ "type": "Feature", "properties": { "name": "RESEARCH FOUNDATION OF THE CITY UNIVERSITY OF NEW YORK", "Address": "230 W 41st St", "City": "New York", "STATE": "NY", "Zip_Code": "10036", "ObjectId": 194, "AllOtherOrgsSummarized_field_1": "97", "award_count": "33", "total_funding_awarded": "23860463", "recipient_type": "Non-profit organization" }, "geometry": { "type": "Point", "coordinates": [ -73.988791031171999, 40.7558409502724 ] } },
{ "type": "Feature", "properties": { "name": "RESEARCH FOUNDATION OF THE CITY UNIVERSITY OF NEW YORK", "Address": "230 W 41st St", "City": "New York", "STATE": "NY", "Zip_Code": "10036", "ObjectId": 195, "AllOtherOrgsSummarized_field_1": "97", "award_count": "33", "total_funding_awarded": "23860463", "recipient_type": "Non-profit organization" }, "geometry": { "type": "Point", "coordinates": [ -73.988791031171999, 40.7558409502724 ] } },
{ "type": "Feature", "properties": { "name": "RESEARCH FOUNDATION OF THE CITY UNIVERSITY OF NEW YORK", "Address": "230 W 41st St", "City": "New York", "STATE": "NY", "Zip_Code": "10036", "ObjectId": 196, "AllOtherOrgsSummarized_field_1": "97", "award_count": "33", "total_funding_awarded": "23860463", "recipient_type": "Non-profit organization" }, "geometry": { "type": "Point", "coordinates": [ -73.988791031171999, 40.7558409502724 ] } },
{ "type": "Feature", "properties": { "name": "RESEARCH FOUNDATION OF THE CITY UNIVERSITY OF NEW YORK", "Address": "230 W 41st St", "City": "New York", "STATE": "NY", "Zip_Code": "10036", "ObjectId": 197, "AllOtherOrgsSummarized_field_1": "97", "award_count": "33", "total_funding_awarded": "23860463", "recipient_type": "Non-profit organization" }, "geometry": { "type": "Point", "coordinates": [ -73.988791031171999, 40.7558409502724 ] } },
{ "type": "Feature", "properties": { "name": "RESEARCH FOUNDATION OF THE CITY UNIVERSITY OF NEW YORK", "Address": "230 W 41st St", "City": "New York", "STATE": "NY", "Zip_Code": "10036", "ObjectId": 198, "AllOtherOrgsSummarized_field_1": "97", "award_count": "33", "total_funding_awarded": "23860463", "recipient_type": "Non-profit organization" }, "geometry": { "type": "Point", "coordinates": [ -73.988791031171999, 40.7558409502724 ] } },
{ "type": "Feature", "properties": { "name": "RESEARCH FOUNDATION OF THE CITY UNIVERSITY OF NEW YORK", "Address": "230 W 41st St", "City": "New York", "STATE": "NY", "Zip_Code": "10036", "ObjectId": 199, "AllOtherOrgsSummarized_field_1": "97", "award_count": "33", "total_funding_awarded": "23860463", "recipient_type": "Non-profit organization" }, "geometry": { "type": "Point", "coordinates": [ -73.988791031171999, 40.7558409502724 ] } },
{ "type": "Feature", "properties": { "name": "RESEARCH FOUNDATION OF THE CITY UNIVERSITY OF NEW YORK", "Address": "230 W 41st St", "City": "New York", "STATE": "NY", "Zip_Code": "10036", "ObjectId": 200, "AllOtherOrgsSummarized_field_1": "97", "award_count": "33", "total_funding_awarded": "23860463", "recipient_type": "Non-profit organization" }, "geometry": { "type": "Point", "coordinates": [ -73.988791031171999, 40.7558409502724 ] } },
{ "type": "Feature", "properties": { "name": "RESEARCH FOUNDATION OF THE CITY UNIVERSITY OF NEW YORK", "Address": "230 W 41st St", "City": "New York", "STATE": "NY", "Zip_Code": "10036", "ObjectId": 201, "AllOtherOrgsSummarized_field_1": "97", "award_count": "33", "total_funding_awarded": "23860463", "recipient_type": "Non-profit organization" }, "geometry": { "type": "Point", "coordinates": [ -73.988791031171999, 40.7558409502724 ] } },
{ "type": "Feature", "properties": { "name": "RESEARCH FOUNDATION OF THE CITY UNIVERSITY OF NEW YORK", "Address": "230 W 41st St", "City": "New York", "STATE": "NY", "Zip_Code": "10036", "ObjectId": 202, "AllOtherOrgsSummarized_field_1": "97", "award_count": "33", "total_funding_awarded": "23860463", "recipient_type": "Non-profit organization" }, "geometry": { "type": "Point", "coordinates": [ -73.988791031171999, 40.7558409502724 ] } },
{ "type": "Feature", "properties": { "name": "RESEARCH FOUNDATION OF THE CITY UNIVERSITY OF NEW YORK", "Address": "230 W 41st St", "City": "New York", "STATE": "NY", "Zip_Code": "10036", "ObjectId": 203, "AllOtherOrgsSummarized_field_1": "97", "award_count": "33", "total_funding_awarded": "23860463", "recipient_type": "Non-profit organization" }, "geometry": { "type": "Point", "coordinates": [ -73.988791031171999, 40.7558409502724 ] } },
{ "type": "Feature", "properties": { "name": "RESEARCH FOUNDATION OF THE CITY UNIVERSITY OF NEW YORK", "Address": "230 W 41st St", "City": "New York", "STATE": "NY", "Zip_Code": "10036", "ObjectId": 204, "AllOtherOrgsSummarized_field_1": "97", "award_count": "33", "total_funding_awarded": "23860463", "recipient_type": "Non-profit organization" }, "geometry": { "type": "Point", "coordinates": [ -73.988791031171999, 40.7558409502724 ] } },
{ "type": "Feature", "properties": { "name": "RESTORE AMERICA'S ESTUARIES", "Address": "5314 17th Ave NW", "City": "Seattle", "STATE": "VA", "Zip_Code": "98107", "ObjectId": 205, "AllOtherOrgsSummarized_field_1": "98", "award_count": "1", "total_funding_awarded": "99997", "recipient_type": "Non-profit organization" }, "geometry": { "type": "Point", "coordinates": [ -122.378347032676004, 47.667717690229601 ] } },
{ "type": "Feature", "properties": { "name": "ROCKY MOUNTAIN INNOVATION INITIATIVE INC", "Address": "320 E Vine Dr", "City": "Fort Collins", "STATE": "CO", "Zip_Code": "80524", "ObjectId": 206, "AllOtherOrgsSummarized_field_1": "99", "award_count": "1", "total_funding_awarded": "15000000", "recipient_type": "Non-profit organization" }, "geometry": { "type": "Point", "coordinates": [ -105.071959050919006, 40.596530391224199 ] } },
{ "type": "Feature", "properties": { "name": "SAGEFOX CONSULTING GROUP LLC", "Address": "30 Boltwood Walk", "City": "Amherst", "STATE": "MA", "Zip_Code": "1002", "ObjectId": 207, "AllOtherOrgsSummarized_field_1": "100", "award_count": "3", "total_funding_awarded": "803224", "recipient_type": "For-profit organization" }, "geometry": { "type": "Point", "coordinates": [ -72.518169354470203, 42.376312488818201 ] } },
{ "type": "Feature", "properties": { "name": "SAGEFOX CONSULTING GROUP LLC", "Address": "30 Boltwood Walk", "City": "Amherst", "STATE": "MA", "Zip_Code": "1002", "ObjectId": 208, "AllOtherOrgsSummarized_field_1": "100", "award_count": "3", "total_funding_awarded": "803224", "recipient_type": "For-profit organization" }, "geometry": { "type": "Point", "coordinates": [ -72.518169354470203, 42.376312488818201 ] } },
{ "type": "Feature", "properties": { "name": "SAGEFOX CONSULTING GROUP LLC", "Address": "30 Boltwood Walk", "City": "Amherst", "STATE": "MA", "Zip_Code": "1002", "ObjectId": 209, "AllOtherOrgsSummarized_field_1": "100", "award_count": "3", "total_funding_awarded": "803224", "recipient_type": "For-profit organization" }, "geometry": { "type": "Point", "coordinates": [ -72.518169354470203, 42.376312488818201 ] } },
{ "type": "Feature", "properties": { "name": "SANTA FE INSTITUTE OF SCIENCE", "Address": "1399 Hyde Park Rd", "City": "Santa Fe", "STATE": "NM", "Zip_Code": "87501", "ObjectId": 210, "AllOtherOrgsSummarized_field_1": "101", "award_count": "1", "total_funding_awarded": "21980", "recipient_type": "Research institute" }, "geometry": { "type": "Point", "coordinates": [ -105.910120115392999, 35.698058165401697 ] } },
{ "type": "Feature", "properties": { "name": "SEEDAI INC", "Address": "507 L St Nw", "City": "Washington", "STATE": "DC", "Zip_Code": "20001-4087", "ObjectId": 211, "AllOtherOrgsSummarized_field_1": "102", "award_count": "1", "total_funding_awarded": "49896", "recipient_type": "Non-profit organization" }, "geometry": { "type": "Point", "coordinates": [ -77.019301232000103, 38.9043605555906 ] } },
{ "type": "Feature", "properties": { "name": "SHAMRCK SOCIAL IMPACT CORP", "Address": "925 Laney Walker Blvd", "City": "Augusta", "STATE": "GA", "Zip_Code": "30901-2951", "ObjectId": 212, "AllOtherOrgsSummarized_field_1": "103", "award_count": "1", "total_funding_awarded": "295000", "recipient_type": "Small business" }, "geometry": { "type": "Point", "coordinates": [ -81.974929320745701, 33.464354604014801 ] } },
{ "type": "Feature", "properties": { "name": "SMITHSONIAN INSTITUTION", "Address": "600 Maryland Ave SW", "City": "Washington", "STATE": "DC", "Zip_Code": "20024", "ObjectId": 213, "AllOtherOrgsSummarized_field_1": "104", "award_count": "1", "total_funding_awarded": "249313", "recipient_type": "Museum" }, "geometry": { "type": "Point", "coordinates": [ -77.020700675160398, 38.886052969949198 ] } },
{ "type": "Feature", "properties": { "name": "SOCIETY FOR PERSONALITY & SOCIAL PSYCHOLOGY INC", "Address": "2021 L St NW", "City": "Washington", "STATE": "DC", "Zip_Code": "20036-3914", "ObjectId": 214, "AllOtherOrgsSummarized_field_1": "105", "award_count": "1", "total_funding_awarded": "161159", "recipient_type": "Non-profit organization" }, "geometry": { "type": "Point", "coordinates": [ -77.045654354702094, 38.904062453469301 ] } },
{ "type": "Feature", "properties": { "name": "SOCIETY OF WOMEN ENGINEERS", "Address": "130 E Randolph St", "City": "Chicago", "STATE": "IL", "Zip_Code": "60601", "ObjectId": 215, "AllOtherOrgsSummarized_field_1": "106", "award_count": "1", "total_funding_awarded": "1893997", "recipient_type": "Non-profit organization" }, "geometry": { "type": "Point", "coordinates": [ -87.620928840876203, 41.8848731654559 ] } },
{ "type": "Feature", "properties": { "name": "HAIRDAYS INC", "Address": "11 E Loop Road", "City": "New York", "STATE": "NY", "Zip_Code": "10044-1500", "ObjectId": 217, "AllOtherOrgsSummarized_field_1": "59", "award_count": "1", "total_funding_awarded": "276000", "recipient_type": "Small business" }, "geometry": { "type": "Point", "coordinates": [ -73.955266267688103, 40.755093032701602 ] } },
{ "type": "Feature", "properties": { "name": "HISPANIC ASSOCIATION OF COLLEGES & UNIVERSITIES", "Address": "4801 NW Loop 410", "City": "San Antonio", "STATE": "TX", "Zip_Code": "78229", "ObjectId": 218, "AllOtherOrgsSummarized_field_1": "60", "award_count": "1", "total_funding_awarded": "621118", "recipient_type": "Non-profit organization" }, "geometry": { "type": "Point", "coordinates": [ -98.581138876922495, 29.490453823841499 ] } },
{ "type": "Feature", "properties": { "name": "HISTORY OF SCIENCE SOCIETY, INC", "Address": "315 Chestnut Street", "City": "Philadelphia", "STATE": "IN", "Zip_Code": "46556", "ObjectId": 219, "AllOtherOrgsSummarized_field_1": "61", "award_count": "1", "total_funding_awarded": "229167", "recipient_type": "Non-profit organization" }, "geometry": { "type": "Point", "coordinates": [ -86.271675362175699, 41.673069806695501 ] } },
{ "type": "Feature", "properties": { "name": "ICONIUM ENGINEERING COMPANY", "Address": "2029 Becker Dr", "City": "Lawrence", "STATE": "KS", "Zip_Code": "66047", "ObjectId": 220, "AllOtherOrgsSummarized_field_1": "62", "award_count": "1", "total_funding_awarded": "295000", "recipient_type": "Small business" }, "geometry": { "type": "Point", "coordinates": [ -95.267013737910503, 38.948437296551901 ] } },
{ "type": "Feature", "properties": { "name": "INCLUSIVE ENGINEERING CONSORTIUM INC", "Address": "205 Daingerfield Road", "City": "Alexandria", "STATE": "IL", "Zip_Code": "22314", "ObjectId": 221, "AllOtherOrgsSummarized_field_1": "63", "award_count": "1", "total_funding_awarded": "49997", "recipient_type": "Non-profit organization" }, "geometry": { "type": "Point", "coordinates": [ -77.058432482681894, 38.804694320278898 ] } },
{ "type": "Feature", "properties": { "name": "INITIUM AI INC", "Address": "245 Hunters Trl", "City": "Ann Arbor", "STATE": "MI", "Zip_Code": "48103", "ObjectId": 222, "AllOtherOrgsSummarized_field_1": "64", "award_count": "1", "total_funding_awarded": "985389", "recipient_type": "Small business" }, "geometry": { "type": "Point", "coordinates": [ -83.835205055249105, 42.2834783847753 ] } },
{ "type": "Feature", "properties": { "name": "INSTITUTE FOR FUTURE INTELLIGENCE INC", "Address": "26 Rockland St", "City": "Natick", "STATE": "MA", "Zip_Code": "1760", "ObjectId": 223, "AllOtherOrgsSummarized_field_1": "65", "award_count": "1", "total_funding_awarded": "1299941", "recipient_type": "Non-profit organization" }, "geometry": { "type": "Point", "coordinates": [ -71.351998435299507, 42.269437440016503 ] } },
{ "type": "Feature", "properties": { "name": "INSTITUTE FOR LEARNING INNOVATION", "Address": "9450 SW Gemini Dr", "City": "Beaverton", "STATE": "OR", "Zip_Code": "97008", "ObjectId": 224, "AllOtherOrgsSummarized_field_1": "66", "award_count": "1", "total_funding_awarded": "1992484", "recipient_type": "Non-profit organization" }, "geometry": { "type": "Point", "coordinates": [ -122.791594640729002, 45.452292336164803 ] } },
{ "type": "Feature", "properties": { "name": "KNOLOGY LTD", "Address": "40 Exchange Pl", "City": "New York", "STATE": "NY", "Zip_Code": "10005", "ObjectId": 225, "AllOtherOrgsSummarized_field_1": "67", "award_count": "2", "total_funding_awarded": "326983", "recipient_type": "Research institute" }, "geometry": { "type": "Point", "coordinates": [ -74.010132362174105, 40.705836485364998 ] } },
{ "type": "Feature", "properties": { "name": "KNOLOGY LTD", "Address": "40 Exchange Pl", "City": "New York", "STATE": "NY", "Zip_Code": "10005", "ObjectId": 226, "AllOtherOrgsSummarized_field_1": "67", "award_count": "2", "total_funding_awarded": "326983", "recipient_type": "Research institute" }, "geometry": { "type": "Point", "coordinates": [ -74.010132362174105, 40.705836485364998 ] } },
{ "type": "Feature", "properties": { "name": "LEARNING PARTNERSHIP LLC", "Address": "4617 Wolf Rd", "City": "Western Springs", "STATE": "IL", "Zip_Code": "60558", "ObjectId": 227, "AllOtherOrgsSummarized_field_1": "68", "award_count": "1", "total_funding_awarded": "1061469", "recipient_type": "Small business" }, "geometry": { "type": "Point", "coordinates": [ -87.898169591620501, 41.805573949663199 ] } },
{ "type": "Feature", "properties": { "name": "LINGUISTIC SOCIETY OF AMERICA", "Address": "522 21st St NW", "City": "Washington", "STATE": "DC", "Zip_Code": "20006", "ObjectId": 228, "AllOtherOrgsSummarized_field_1": "69", "award_count": "2", "total_funding_awarded": "91080", "recipient_type": "Non-profit organization" }, "geometry": { "type": "Point", "coordinates": [ -77.046903259085397, 38.896723636032299 ] } },
{ "type": "Feature", "properties": { "name": "LINGUISTIC SOCIETY OF AMERICA", "Address": "522 21st St NW", "City": "Washington", "STATE": "DC", "Zip_Code": "20006", "ObjectId": 229, "AllOtherOrgsSummarized_field_1": "69", "award_count": "2", "total_funding_awarded": "91080", "recipient_type": "Non-profit organization" }, "geometry": { "type": "Point", "coordinates": [ -77.046903259085397, 38.896723636032299 ] } },
{ "type": "Feature", "properties": { "name": "LIVEDX INC.", "Address": "333 SE 2nd Ave", "City": "Miami", "STATE": "CO", "Zip_Code": "33131", "ObjectId": 230, "AllOtherOrgsSummarized_field_1": "70", "award_count": "1", "total_funding_awarded": "274993", "recipient_type": "Small business" }, "geometry": { "type": "Point", "coordinates": [ -80.189634822147298, 25.771298150706102 ] } },
{ "type": "Feature", "properties": { "name": "LOS ANGELES COUNTY MUSEUM OF NATURAL HISTORY FOUNDATION", "Address": "900 Exposition Blvd", "City": "Los Angeles", "STATE": "CA", "Zip_Code": "90007", "ObjectId": 231, "AllOtherOrgsSummarized_field_1": "71", "award_count": "1", "total_funding_awarded": "2982873", "recipient_type": "Museum" }, "geometry": { "type": "Point", "coordinates": [ -118.289417455687001, 34.016937145064198 ] } },
{ "type": "Feature", "properties": { "name": "LOUISIANA UNIVERSITIES MARINE CONSORTIUM", "Address": "8124 Highway 56", "City": "Chauvin", "STATE": "LA", "Zip_Code": "70344", "ObjectId": 232, "AllOtherOrgsSummarized_field_1": "72", "award_count": "1", "total_funding_awarded": "529225", "recipient_type": "Non-profit organization" }, "geometry": { "type": "Point", "coordinates": [ -90.660825600091798, 29.2537051251958 ] } },
{ "type": "Feature", "properties": { "name": "MARINE ENVIRONMENTAL SCIENCES CONSORTIUM", "Address": "101 Bienville Blvd", "City": "Dauphin Island", "STATE": "AL", "Zip_Code": "36528", "ObjectId": 233, "AllOtherOrgsSummarized_field_1": "73", "award_count": "1", "total_funding_awarded": "326755", "recipient_type": "Non-profit organization" }, "geometry": { "type": "Point", "coordinates": [ -88.077341154101305, 30.249437964986502 ] } },
{ "type": "Feature", "properties": { "name": "MATERIALS RESEARCH SOCIETY", "Address": "506 Keystone Drive", "City": "Warrendale", "STATE": "PA", "Zip_Code": "15086-7537", "ObjectId": 234, "AllOtherOrgsSummarized_field_1": "74", "award_count": "5", "total_funding_awarded": "63940", "recipient_type": "Non-profit organization" }, "geometry": { "type": "Point", "coordinates": [ -80.115808862816806, 40.6710263161713 ] } },
{ "type": "Feature", "properties": { "name": "MATERIALS RESEARCH SOCIETY", "Address": "506 Keystone Drive", "City": "Warrendale", "STATE": "PA", "Zip_Code": "15086-7537", "ObjectId": 235, "AllOtherOrgsSummarized_field_1": "74", "award_count": "5", "total_funding_awarded": "63940", "recipient_type": "Non-profit organization" }, "geometry": { "type": "Point", "coordinates": [ -80.115808862816806, 40.6710263161713 ] } },
{ "type": "Feature", "properties": { "name": "MATERIALS RESEARCH SOCIETY", "Address": "506 Keystone Drive", "City": "Warrendale", "STATE": "PA", "Zip_Code": "15086-7537", "ObjectId": 236, "AllOtherOrgsSummarized_field_1": "74", "award_count": "5", "total_funding_awarded": "63940", "recipient_type": "Non-profit organization" }, "geometry": { "type": "Point", "coordinates": [ -80.115808862816806, 40.6710263161713 ] } },
{ "type": "Feature", "properties": { "name": "MATERIALS RESEARCH SOCIETY", "Address": "506 Keystone Drive", "City": "Warrendale", "STATE": "PA", "Zip_Code": "15086-7537", "ObjectId": 237, "AllOtherOrgsSummarized_field_1": "74", "award_count": "5", "total_funding_awarded": "63940", "recipient_type": "Non-profit organization" }, "geometry": { "type": "Point", "coordinates": [ -80.115808862816806, 40.6710263161713 ] } },
{ "type": "Feature", "properties": { "name": "MATERIALS RESEARCH SOCIETY", "Address": "506 Keystone Drive", "City": "Warrendale", "STATE": "PA", "Zip_Code": "15086-7537", "ObjectId": 238, "AllOtherOrgsSummarized_field_1": "74", "award_count": "5", "total_funding_awarded": "63940", "recipient_type": "Non-profit organization" }, "geometry": { "type": "Point", "coordinates": [ -80.115808862816806, 40.6710263161713 ] } },
{ "type": "Feature", "properties": { "name": "MATHEMATICAL SCIENCES RESEARCH INSTITUTE", "Address": "17 Gauss Way", "City": "Berkeley", "STATE": "CA", "Zip_Code": "94720", "ObjectId": 239, "AllOtherOrgsSummarized_field_1": "75", "award_count": "1", "total_funding_awarded": "100", "recipient_type": "Research institute" }, "geometry": { "type": "Point", "coordinates": [ -122.243995602450994, 37.880633416837703 ] } },
{ "type": "Feature", "properties": { "name": "MINERALS METALS & MATERIALS SOCIETY INC", "Address": "5700 Corporate Dr", "City": "Pittsburgh", "STATE": "PA", "Zip_Code": "15237", "ObjectId": 240, "AllOtherOrgsSummarized_field_1": "76", "award_count": "1", "total_funding_awarded": "15000", "recipient_type": "Non-profit organization" }, "geometry": { "type": "Point", "coordinates": [ -80.022474192257704, 40.564182573057799 ] } },
{ "type": "Feature", "properties": { "name": "MINTANGIBLE, INC.", "Address": "2400 Old Brick Road", "City": "Glen Allen", "STATE": "VA", "Zip_Code": "23060", "ObjectId": 241, "AllOtherOrgsSummarized_field_1": "77", "award_count": "1", "total_funding_awarded": "275000", "recipient_type": "Small business" }, "geometry": { "type": "Point", "coordinates": [ -77.602644645065098, 37.648531225549398 ] } },
{ "type": "Feature", "properties": { "name": "MONTEREY BAY AQUARIUM RESEARCH INSTITUTE", "Address": "7700 Sandholdt Rd", "City": "Moss Landing", "STATE": "CA", "Zip_Code": "95039", "ObjectId": 242, "AllOtherOrgsSummarized_field_1": "78", "award_count": "1", "total_funding_awarded": "419799", "recipient_type": "Research institute" }, "geometry": { "type": "Point", "coordinates": [ -121.787534757741994, 36.803396081634297 ] } },
{ "type": "Feature", "properties": { "name": "MOTE MARINE LABORATORY, INC.", "Address": "1600 Ken Thompson Parkway", "City": "Sarasota", "STATE": "FL", "Zip_Code": "34236", "ObjectId": 243, "AllOtherOrgsSummarized_field_1": "79", "award_count": "2", "total_funding_awarded": "797839", "recipient_type": "Research institute" }, "geometry": { "type": "Point", "coordinates": [ -82.577394201981505, 27.332766748676399 ] } },
{ "type": "Feature", "properties": { "name": "MOTE MARINE LABORATORY, INC.", "Address": "1600 Ken Thompson Parkway", "City": "Sarasota", "STATE": "FL", "Zip_Code": "34236", "ObjectId": 244, "AllOtherOrgsSummarized_field_1": "79", "award_count": "2", "total_funding_awarded": "797839", "recipient_type": "Research institute" }, "geometry": { "type": "Point", "coordinates": [ -82.577394201981505, 27.332766748676399 ] } },
{ "type": "Feature", "properties": { "name": "NATIONAL ACADEMY OF SCIENCES", "Address": "2101 Constitution Ave NW", "City": "Washington", "STATE": "DC", "Zip_Code": "20418", "ObjectId": 245, "AllOtherOrgsSummarized_field_1": "80", "award_count": "9", "total_funding_awarded": "2084618", "recipient_type": "Non-profit organization" }, "geometry": { "type": "Point", "coordinates": [ -77.047773384337603, 38.893070927965297 ] } },
{ "type": "Feature", "properties": { "name": "NATIONAL ACADEMY OF SCIENCES", "Address": "2101 Constitution Ave NW", "City": "Washington", "STATE": "DC", "Zip_Code": "20418", "ObjectId": 246, "AllOtherOrgsSummarized_field_1": "80", "award_count": "9", "total_funding_awarded": "2084618", "recipient_type": "Non-profit organization" }, "geometry": { "type": "Point", "coordinates": [ -77.047773384337603, 38.893070927965297 ] } },
{ "type": "Feature", "properties": { "name": "NATIONAL ACADEMY OF SCIENCES", "Address": "2101 Constitution Ave NW", "City": "Washington", "STATE": "DC", "Zip_Code": "20418", "ObjectId": 247, "AllOtherOrgsSummarized_field_1": "80", "award_count": "9", "total_funding_awarded": "2084618", "recipient_type": "Non-profit organization" }, "geometry": { "type": "Point", "coordinates": [ -77.047773384337603, 38.893070927965297 ] } },
{ "type": "Feature", "properties": { "name": "NATIONAL ACADEMY OF SCIENCES", "Address": "2101 Constitution Ave NW", "City": "Washington", "STATE": "DC", "Zip_Code": "20418", "ObjectId": 248, "AllOtherOrgsSummarized_field_1": "80", "award_count": "9", "total_funding_awarded": "2084618", "recipient_type": "Non-profit organization" }, "geometry": { "type": "Point", "coordinates": [ -77.047773384337603, 38.893070927965297 ] } },
{ "type": "Feature", "properties": { "name": "NATIONAL ACADEMY OF SCIENCES", "Address": "2101 Constitution Ave NW", "City": "Washington", "STATE": "DC", "Zip_Code": "20418", "ObjectId": 249, "AllOtherOrgsSummarized_field_1": "80", "award_count": "9", "total_funding_awarded": "2084618", "recipient_type": "Non-profit organization" }, "geometry": { "type": "Point", "coordinates": [ -77.047773384337603, 38.893070927965297 ] } },
{ "type": "Feature", "properties": { "name": "NATIONAL ACADEMY OF SCIENCES", "Address": "2101 Constitution Ave NW", "City": "Washington", "STATE": "DC", "Zip_Code": "20418", "ObjectId": 250, "AllOtherOrgsSummarized_field_1": "80", "award_count": "9", "total_funding_awarded": "2084618", "recipient_type": "Non-profit organization" }, "geometry": { "type": "Point", "coordinates": [ -77.047773384337603, 38.893070927965297 ] } },
{ "type": "Feature", "properties": { "name": "NATIONAL ACADEMY OF SCIENCES", "Address": "2101 Constitution Ave NW", "City": "Washington", "STATE": "DC", "Zip_Code": "20418", "ObjectId": 251, "AllOtherOrgsSummarized_field_1": "80", "award_count": "9", "total_funding_awarded": "2084618", "recipient_type": "Non-profit organization" }, "geometry": { "type": "Point", "coordinates": [ -77.047773384337603, 38.893070927965297 ] } },
{ "type": "Feature", "properties": { "name": "NATIONAL ACADEMY OF SCIENCES", "Address": "2101 Constitution Ave NW", "City": "Washington", "STATE": "DC", "Zip_Code": "20418", "ObjectId": 252, "AllOtherOrgsSummarized_field_1": "80", "award_count": "9", "total_funding_awarded": "2084618", "recipient_type": "Non-profit organization" }, "geometry": { "type": "Point", "coordinates": [ -77.047773384337603, 38.893070927965297 ] } },
{ "type": "Feature", "properties": { "name": "NATIONAL ACADEMY OF SCIENCES", "Address": "2101 Constitution Ave NW", "City": "Washington", "STATE": "DC", "Zip_Code": "20418", "ObjectId": 253, "AllOtherOrgsSummarized_field_1": "80", "award_count": "9", "total_funding_awarded": "2084618", "recipient_type": "Non-profit organization" }, "geometry": { "type": "Point", "coordinates": [ -77.047773384337603, 38.893070927965297 ] } },
{ "type": "Feature", "properties": { "name": "NATIONAL BUREAU OF ECONOMIC RESEARCH INC", "Address": "1050 Massachusetts Ave", "City": "Cambridge", "STATE": "MA", "Zip_Code": "2138", "ObjectId": 254, "AllOtherOrgsSummarized_field_1": "81", "award_count": "12", "total_funding_awarded": "4325167", "recipient_type": "Non-profit organization" }, "geometry": { "type": "Point", "coordinates": [ -71.113038254917498, 42.3697994148501 ] } },
{ "type": "Feature", "properties": { "name": "NATIONAL BUREAU OF ECONOMIC RESEARCH INC", "Address": "1050 Massachusetts Ave", "City": "Cambridge", "STATE": "MA", "Zip_Code": "2138", "ObjectId": 255, "AllOtherOrgsSummarized_field_1": "81", "award_count": "12", "total_funding_awarded": "4325167", "recipient_type": "Non-profit organization" }, "geometry": { "type": "Point", "coordinates": [ -71.113038254917498, 42.3697994148501 ] } },
{ "type": "Feature", "properties": { "name": "NATIONAL BUREAU OF ECONOMIC RESEARCH INC", "Address": "1050 Massachusetts Ave", "City": "Cambridge", "STATE": "MA", "Zip_Code": "2138", "ObjectId": 256, "AllOtherOrgsSummarized_field_1": "81", "award_count": "12", "total_funding_awarded": "4325167", "recipient_type": "Non-profit organization" }, "geometry": { "type": "Point", "coordinates": [ -71.113038254917498, 42.3697994148501 ] } },
{ "type": "Feature", "properties": { "name": "NATIONAL BUREAU OF ECONOMIC RESEARCH INC", "Address": "1050 Massachusetts Ave", "City": "Cambridge", "STATE": "MA", "Zip_Code": "2138", "ObjectId": 257, "AllOtherOrgsSummarized_field_1": "81", "award_count": "12", "total_funding_awarded": "4325167", "recipient_type": "Non-profit organization" }, "geometry": { "type": "Point", "coordinates": [ -71.113038254917498, 42.3697994148501 ] } },
{ "type": "Feature", "properties": { "name": "NATIONAL BUREAU OF ECONOMIC RESEARCH INC", "Address": "1050 Massachusetts Ave", "City": "Cambridge", "STATE": "MA", "Zip_Code": "2138", "ObjectId": 258, "AllOtherOrgsSummarized_field_1": "81", "award_count": "12", "total_funding_awarded": "4325167", "recipient_type": "Non-profit organization" }, "geometry": { "type": "Point", "coordinates": [ -71.113038254917498, 42.3697994148501 ] } },
{ "type": "Feature", "properties": { "name": "NATIONAL BUREAU OF ECONOMIC RESEARCH INC", "Address": "1050 Massachusetts Ave", "City": "Cambridge", "STATE": "MA", "Zip_Code": "2138", "ObjectId": 259, "AllOtherOrgsSummarized_field_1": "81", "award_count": "12", "total_funding_awarded": "4325167", "recipient_type": "Non-profit organization" }, "geometry": { "type": "Point", "coordinates": [ -71.113038254917498, 42.3697994148501 ] } },
{ "type": "Feature", "properties": { "name": "NATIONAL BUREAU OF ECONOMIC RESEARCH INC", "Address": "1050 Massachusetts Ave", "City": "Cambridge", "STATE": "MA", "Zip_Code": "2138", "ObjectId": 260, "AllOtherOrgsSummarized_field_1": "81", "award_count": "12", "total_funding_awarded": "4325167", "recipient_type": "Non-profit organization" }, "geometry": { "type": "Point", "coordinates": [ -71.113038254917498, 42.3697994148501 ] } },
{ "type": "Feature", "properties": { "name": "NATIONAL BUREAU OF ECONOMIC RESEARCH INC", "Address": "1050 Massachusetts Ave", "City": "Cambridge", "STATE": "MA", "Zip_Code": "2138", "ObjectId": 261, "AllOtherOrgsSummarized_field_1": "81", "award_count": "12", "total_funding_awarded": "4325167", "recipient_type": "Non-profit organization" }, "geometry": { "type": "Point", "coordinates": [ -71.113038254917498, 42.3697994148501 ] } },
{ "type": "Feature", "properties": { "name": "NATIONAL BUREAU OF ECONOMIC RESEARCH INC", "Address": "1050 Massachusetts Ave", "City": "Cambridge", "STATE": "MA", "Zip_Code": "2138", "ObjectId": 262, "AllOtherOrgsSummarized_field_1": "81", "award_count": "12", "total_funding_awarded": "4325167", "recipient_type": "Non-profit organization" }, "geometry": { "type": "Point", "coordinates": [ -71.113038254917498, 42.3697994148501 ] } },
{ "type": "Feature", "properties": { "name": "NATIONAL BUREAU OF ECONOMIC RESEARCH INC", "Address": "1050 Massachusetts Ave", "City": "Cambridge", "STATE": "MA", "Zip_Code": "2138", "ObjectId": 263, "AllOtherOrgsSummarized_field_1": "81", "award_count": "12", "total_funding_awarded": "4325167", "recipient_type": "Non-profit organization" }, "geometry": { "type": "Point", "coordinates": [ -71.113038254917498, 42.3697994148501 ] } },
{ "type": "Feature", "properties": { "name": "NATIONAL BUREAU OF ECONOMIC RESEARCH INC", "Address": "1050 Massachusetts Ave", "City": "Cambridge", "STATE": "MA", "Zip_Code": "2138", "ObjectId": 264, "AllOtherOrgsSummarized_field_1": "81", "award_count": "12", "total_funding_awarded": "4325167", "recipient_type": "Non-profit organization" }, "geometry": { "type": "Point", "coordinates": [ -71.113038254917498, 42.3697994148501 ] } },
{ "type": "Feature", "properties": { "name": "NATIONAL BUREAU OF ECONOMIC RESEARCH INC", "Address": "1050 Massachusetts Ave", "City": "Cambridge", "STATE": "MA", "Zip_Code": "2138", "ObjectId": 265, "AllOtherOrgsSummarized_field_1": "81", "award_count": "12", "total_funding_awarded": "4325167", "recipient_type": "Non-profit organization" }, "geometry": { "type": "Point", "coordinates": [ -71.113038254917498, 42.3697994148501 ] } },
{ "type": "Feature", "properties": { "name": "NATIONAL COLLEGIATE INVENTORS & INNOVATORS ALLIANCE, INC.", "Address": "100 Venture Way", "City": "Hadley", "STATE": "MA", "Zip_Code": "1035", "ObjectId": 266, "AllOtherOrgsSummarized_field_1": "82", "award_count": "1", "total_funding_awarded": "100000", "recipient_type": "Small business" }, "geometry": { "type": "Point", "coordinates": [ -72.546289298944401, 42.363681715458199 ] } },
{ "type": "Feature", "properties": { "name": "NATIONAL CONSORTIUM FOR GRADUATE DEGREES FOR MINORITIES IN ENGINEERING AND SCIENCE INC.", "Address": "1430 Duke St", "City": "Alexandria", "STATE": "VA", "Zip_Code": "22314", "ObjectId": 267, "AllOtherOrgsSummarized_field_1": "83", "award_count": "1", "total_funding_awarded": "600000", "recipient_type": "Non-profit organization" }, "geometry": { "type": "Point", "coordinates": [ -77.056431303028504, 38.803679314180499 ] } },
{ "type": "Feature", "properties": { "name": "NATIONAL OPINION RESEARCH CENTER", "Address": "55 E Monroe St", "City": "Chicago", "STATE": "IL", "Zip_Code": "60603", "ObjectId": 268, "AllOtherOrgsSummarized_field_1": "84", "award_count": "2", "total_funding_awarded": "1256980", "recipient_type": "Research institute" }, "geometry": { "type": "Point", "coordinates": [ -87.625297069625205, 41.880036304608801 ] } },
{ "type": "Feature", "properties": { "name": "NATIONAL OPINION RESEARCH CENTER", "Address": "55 E Monroe St", "City": "Chicago", "STATE": "IL", "Zip_Code": "60603", "ObjectId": 269, "AllOtherOrgsSummarized_field_1": "84", "award_count": "2", "total_funding_awarded": "1256980", "recipient_type": "Research institute" }, "geometry": { "type": "Point", "coordinates": [ -87.625297069625205, 41.880036304608801 ] } },
{ "type": "Feature", "properties": { "name": "NATIONAL SOCIETY OF BLACK ENGINEERS", "Address": "205 Daingerfield Rd", "City": "Alexandria", "STATE": "VA", "Zip_Code": "22314", "ObjectId": 270, "AllOtherOrgsSummarized_field_1": "85", "award_count": "1", "total_funding_awarded": "397978", "recipient_type": "Non-profit organization" }, "geometry": { "type": "Point", "coordinates": [ -77.058432482681894, 38.804694320278898 ] } }
]
}
